name,departement,region,Fermeture_Estivale,colors,longitude,latitude
Les Roulottes,Yvelines,Île-de-France,Fermé,red,2.1320352,48.8066002
La Popote,Yvelines,Île-de-France,Fermé,red,2.1291316,48.8029742
Le Bus,Yvelines,Île-de-France,Fermé,red,2.1301220000000285,48.801408
SOS Accueil,Yvelines,Île-de-France,Modification,orange,2.133945,48.7978792
Association La Boutique Familiale,Yvelines,Île-de-France,Ouvert,green,2.0865671000000248,48.9988353
La Cimade - Plaisir,Yvelines,Île-de-France,Fermé,red,1.944144,48.819684
Secours Catholique Chanteloup-les-Vignes,Yvelines,Île-de-France,Fermé,red,2.0366174000000683,48.9725654
Secours populaire Antenne de Trappes,Yvelines,Île-de-France,Fermé,red,1.9835586,48.7819756
Secours Populaire comité de Mantes la ville,Yvelines,Île-de-France,Fermé,red,1.7029748999999583,48.9758296
Secours populaire Antenne de Magny les Hameaux,Yvelines,Île-de-France,Fermé,red,2.096696800000018,48.71764
Les Restos du Coeur de Conflans Sainte Honorine,Yvelines,Île-de-France,Fermé,red,2.0789569,48.99357209999999
Les Restos du Coeur de Magny-les-Hameaux,Yvelines,Île-de-France,Fermé,red,2.1036997,48.7180261
Les Restos du Coeur de Mantes-la-Ville,Yvelines,Île-de-France,Fermé,red,1.7115638000000217,48.97436560000001
Les Restos du Coeur d'Elancourt,Yvelines,Île-de-France,Fermé,red,1.9611469999999827,48.7722144
Les Restos du Coeur des Mureaux,Yvelines,Île-de-France,Fermé,red,1.9178471,48.97785760000001
Les Restos du Coeur de Poissy,Yvelines,Île-de-France,Fermé,red,2.0494407999999567,48.9321713
Les  Restos du Coeur de Rambouillet,Yvelines,Île-de-France,Fermé,red,1.8260887000000139,48.64522940000001
Les Restos du Coeur de Trappes,Yvelines,Île-de-France,Fermé,red,1.9923439000000371,48.7765711
Croix Rouge Unité locale de Poissy,Yvelines,Île-de-France,Fermé,red,2.0464491999999836,48.9331627
Épicerie sociale et domiciliation Croix-Rouge Élancourt,Yvelines,Île-de-France,Fermé,red,1.9603710000000092,48.76587500000001
Point Justice (ancien PAD) d'Achères,Yvelines,Île-de-France,Fermé,red,2.0677412000000004,48.9607371
Épicerie sociale Croix-Rouge Trappes,Yvelines,Île-de-France,Fermé,red,1.9885451000000103,48.7768682
Point Justice (ancien PAD)  de Sartrouville,Yvelines,Île-de-France,Ouvert,green,2.197618499999976,48.9419644
Les Restos du Cœur de Sartrouville,Yvelines,Île-de-France,Fermé,red,2.197618499999976,48.9419644
L’Escale,Yvelines,Île-de-France,Modification,orange,2.187615400000027,48.924733
Épicerie Solidaire de l’association ELLSA,Yvelines,Île-de-France,Fermé,red,2.0659952,48.9662666
Point Justice (ancien PAD) de Carrières-sous-Poissy,Yvelines,Île-de-France,Ouvert,green,2.0274041000000125,48.9427483
Maison de la Justice et du Droit (MJD) de Guyancourt,Yvelines,Île-de-France,Fermé,red,2.0504550000000563,48.7847609
Maison de Justice et du Droit (MJD) des Mureaux,Yvelines,Île-de-France,Fermé,red,1.9115864999999985,48.9925187
Point Justice (ancien PAD) de Mantes-la-Jolie,Yvelines,Île-de-France,Fermé,red,1.6931260000000066,48.9951344
Point Justice (ancien PAD) de Poissy,Yvelines,Île-de-France,Fermé,red,2.044757200000049,48.927133
Point Justice de Saint Germain en Laye,Yvelines,Île-de-France,Fermé,red,2.0904030000000375,48.8951483
Maison de la Justice et du Droit (MJD) de Trappes,Yvelines,Île-de-France,Fermé,red,2.0004444999999578,48.776579
Déclic,Yvelines,Île-de-France,Fermé,red,1.7112629000000652,48.98704909999999
Coallia Limay,Yvelines,Île-de-France,Fermé,red,1.7413245999999845,48.99170830000001
Dom’asile – Versailles,Yvelines,Île-de-France,Modification,orange,2.122738199999958,48.81413879999999
Croix Rouge Unité locale de Versailles,Yvelines,Île-de-France,Fermé,red,2.1259066000000075,48.81185929999999
Accueil de jour Versailles - Secours catholique ,Yvelines,Île-de-France,Fermé,red,2.119835699999999,48.7951041
Accueil Ecoute Viroflay,Yvelines,Île-de-France,Modification,orange,2.162908,48.797392
Entraide de l'Eglise Protestante Unie de Versailles,Yvelines,Île-de-France,Modification,orange,2.1376971,48.79442299999999
Association RIVE Versailles,Yvelines,Île-de-France,Fermé,red,2.1226779999999508,48.7936728
St Mark's Church Versailles,Yvelines,Île-de-France,Ouvert,green,2.151375499999972,48.7873834
Ordre de Malte Yvelines,Yvelines,Île-de-France,Modification,orange,2.1313973,48.82571129999999
Secours Populaire Français Comité d'Achères,Yvelines,Île-de-France,Fermé,red,2.0735451000000467,48.9673538
Association de Solidarité avec Tous les Immigrés (ASTI) de Carrières-sur-Seine,Yvelines,Île-de-France,Ouvert,green,1.9025613000000021,48.8219292
"Bateau ""Je sers""",Yvelines,Île-de-France,Fermé,red,2.0868333999999322,48.99060919999999
Association Coup de pouce (ex ASTI de FONTENAY),Yvelines,Île-de-France,Fermé,red,2.056600900000035,48.81304300000001
Bouche et Coeur,Yvelines,Île-de-France,Fermé,red,2.0702268000000004,48.7773036
Fontaine,Yvelines,Île-de-France,Ouvert,green,2.1410264999999526,48.7648012
Fontaine Wallace,Yvelines,Île-de-France,Ouvert,green,2.189166,48.9259945
Secours Populaire Comité de Houilles,Yvelines,Île-de-France,Fermé,red,2.17784800000004,48.9215554
Les Restos du Coeur des Clayes-sous-Bois,Yvelines,Île-de-France,Fermé,red,1.992220399999951,48.8248255
Secours Populaire Comité de Limay,Yvelines,Île-de-France,Fermé,red,1.7320947000000615,48.9908131
Cimetière de Viroflay,Yvelines,Île-de-France,Ouvert,green,2.1788461999999527,48.7956289
Ferme de Viltain,Yvelines,Île-de-France,Ouvert,green,2.1585234000000355,48.75428129999999
Aide pour tous,Yvelines,Île-de-France,Ouvert,green,1.6821429999999964,49.0006255
Nouvel Espoir - Mantes la Jolie,Yvelines,Île-de-France,Fermé,red,1.69968879999999,48.9940426
Antenne Nouvel Espoir - Les Mureaux,Yvelines,Île-de-France,Fermé,red,1.9131042,48.9860708
Arbre à pain,Yvelines,Île-de-France,Fermé,red,2.087627999999995,48.9000089
Fraternité Mission Populaire de Trappes,Yvelines,Île-de-France,Fermé,red,1.9912529000000632,48.77705719999999
Mission locale des Mureaux,Yvelines,Île-de-France,Fermé,red,1.9131862,48.9907782
Mission locale de Saint-Germain-en-Laye,Yvelines,Île-de-France,Fermé,red,2.086026,48.8978584
Mission locale  - site de Trappes,Yvelines,Île-de-France,Fermé,red,1.9923439000000371,48.7765711
Permanence - Mission locale Chanteloup-les-Vignes,Yvelines,Île-de-France,Fermé,red,2.02677790000007,48.9720945
Centre de Protection Maternelle et Infantile (PMI) d’Aubergenville,Yvelines,Île-de-France,Fermé,red,1.8603152,48.9573733
Centre de Protection Maternelle et Infantile (PMI) de Chanteloup-les-Vignes,Yvelines,Île-de-France,Fermé,red,2.0272021,48.9723087
Centre de Protection Maternelle et Infantile (PMI) de Conflans-sainte-honorine,Yvelines,Île-de-France,Fermé,red,2.105547500000057,48.9992555
Centre de Protection Maternelle et Infantile (PMI) de Guyancourt,Yvelines,Île-de-France,Fermé,red,2.051289,48.787488
Centre de Protection Maternelle et Infantile (PMI) de Houdan,Yvelines,Île-de-France,Fermé,red,1.6027097,48.7898473
Centre de Protection Maternelle et Infantile (PMI) de Houilles,Yvelines,Île-de-France,Fermé,red,2.1861811,48.92711689999999
Centre de Protection Maternelle et Infantile (PMI) de La Celle-Saint-Cloud,Yvelines,Île-de-France,Fermé,red,2.1350965,48.84703
PMI de Maurepas,Yvelines,Île-de-France,Ouvert,green,1.9427944000000252,48.7620934
Centre de Protection Maternelle et Infantile (PMI) de Plaisir,Yvelines,Île-de-France,Fermé,red,1.9566823,48.8297495
Centre de Protection Maternelle et Infantile (PMI) de Poissy,Yvelines,Île-de-France,Fermé,red,2.0461462,48.9270959
Centre de Protection Maternelle et Infantile (PMI) de Rambouillet,Yvelines,Île-de-France,Fermé,red,1.8267879,48.6499923
Centre de Protection Maternelle et Infantile (PMI) de Saint-Cyr-l'Ecole,Yvelines,Île-de-France,Fermé,red,2.0617058,48.8021392
Centre de Protection Maternelle et Infantile (PMI)  de Saint-Germain-en-laye,Yvelines,Île-de-France,Fermé,red,2.086026,48.8978584
Centre de Protection Maternelle et Infantile (PMI) de Trappes,Yvelines,Île-de-France,Fermé,red,1.9841719,48.7796745
Centre de Protection Maternelle et Infantile (PMI) de Vélizy,Yvelines,Île-de-France,Fermé,red,2.1827059,48.7861971
Centre de Protection Maternelle et Infantile (PMI) de Vernouillet,Yvelines,Île-de-France,Fermé,red,1.9856168,48.9771028
Centre de Protection Maternelle et Infantile (PMI) de Versailles,Yvelines,Île-de-France,Fermé,red,2.1342274,48.80279960000001
Centre de protection maternelle et infantile (PMI) des Clayes-sous-Bois,Yvelines,Île-de-France,Ouvert,green,1.9878490999999485,48.8267415
Centre hospitalier Intercommunal de Meulan-les Mureaux - Permanence d'accès aux soins de santé (PASS) ,Yvelines,Île-de-France,Fermé,red,1.9116189999999733,49.0027287
Mission locale du Mantois ,Yvelines,Île-de-France,Fermé,red,1.686313000000041,49.00045249999999
Secours Populaire Antenne de Viroflay,Yvelines,Île-de-France,Ouvert,green,2.17226519999997,48.8026284
Institut Women-Safe,Yvelines,Île-de-France,Fermé,red,2.086026,48.8978584
Associations de Solidarité avec Tou-te-s les Immigré-e-s (ASTI) de Mantes-la-Jolie,Yvelines,Île-de-France,Fermé,red,1.709455700000035,48.9914942
 Associations de Solidarité avec Tou-te-s les Immigré-e-s (ASTI) Viroflay,Yvelines,Île-de-France,Ouvert,green,2.170616999999993,48.80391669999999
"Insertion, Solidarité, Autonomie (ISA)",Yvelines,Île-de-France,Fermé,red,1.895092,48.98564529999999
Centre de Protection Maternelle et Infantile (PMI) d'Achères,Yvelines,Île-de-France,Fermé,red,2.06275370000003,48.9602058
Centre Médico Psychologique Infanto juvénile (CMPI) de Maurepas,Yvelines,Île-de-France,Fermé,red,1.943128999999999,48.7618593
Les Restos du Coeur de Limay,Yvelines,Île-de-France,Fermé,red,1.7490116999999827,48.9959466
Centre d'information sur les droits des femmes et des familles (CIDFF) - Yvelines siège,Yvelines,Île-de-France,Fermé,red,2.024560000000065,48.9434222
Parc Charles de Gaulle,Yvelines,Île-de-France,Ouvert,green,2.1850904000000355,48.9229229
Fontaine Wallace,Yvelines,Île-de-France,Ouvert,green,2.1871209999999337,48.92272190000001
AGORAé de Saint-Quentin-en-Yvelines,Yvelines,Île-de-France,Ouvert,green,2.044503,48.7803178
RESF 78,Yvelines,Île-de-France,Ouvert,green,1.911032299999988,48.9898739
Centre social André-Malraux,Yvelines,Île-de-France,Fermé,red,2.0284286999999495,48.9210163
 Associations de Solidarité avec Tou-te-s les Immigré-e-s (ASTI) Sartrouville,Yvelines,Île-de-France,Modification,orange,2.1667825,48.93387269999999
Mouvement contre le racisme et pour l'amitié entre les peuples (MRAP) - Comité local de Saint-Quentin en Yvelines,Yvelines,Île-de-France,Ouvert,green,1.9817265,48.77443280000001
CEFY Versailles,Yvelines,Île-de-France,Ouvert,green,2.161872399999993,48.8039667
Médiathèque Christine-de-Pizan,Yvelines,Île-de-France,Fermé,red,2.0399385,48.932172
Médiathèque du Canal,Yvelines,Île-de-France,Fermé,red,2.041696,48.78279999999999
Médiathèque Anatole-France,Yvelines,Île-de-France,Fermé,red,1.9828709999999319,48.781808
Secours catholique Le Confluent,Yvelines,Île-de-France,Ouvert,green,2.113786,49.0050278
Secours catholique Meulan,Yvelines,Île-de-France,Ouvert,green,1.9101623000000245,49.00555620000001
Secours catholique Mantes-la-Jolie,Yvelines,Île-de-France,Ouvert,green,1.719790200000034,48.9906819
Secours Catholique Bonnières sur Seine,Yvelines,Île-de-France,Ouvert,green,1.5766753999999992,49.0363991
Secours catholique Limay / Vexin,Yvelines,Île-de-France,Ouvert,green,1.8090204000000085,48.99023080000001
Secours catholique Les Mureaux,Yvelines,Île-de-France,Ouvert,green,1.895091999999977,48.98564529999999
Secours catholique Verneuil sur Seine / Vernouillet,Yvelines,Île-de-France,Ouvert,green,1.9774730000000318,48.9793636
Secours catholique Triel sur Seine,Yvelines,Île-de-France,Ouvert,green,2.0095479,48.9737722
Secours Catholique Achères,Yvelines,Île-de-France,Ouvert,green,2.071559799999932,48.9593569
Secours catholique  de Maisons Laffitte - L'Escale Partage,Yvelines,Île-de-France,Ouvert,green,2.1450392,48.94836799999999
Secours Catholique Poissy,Yvelines,Île-de-France,Fermé,red,2.0513551000000234,48.9300601
Secours catholique Carrières-sous-Poissy,Yvelines,Île-de-France,Ouvert,green,2.0401597,48.9481323
Secours catholique Mesnil le Roi,Yvelines,Île-de-France,Ouvert,green,2.1228750999999875,48.94048220000001
Secours catholique Montesson,Yvelines,Île-de-France,Ouvert,green,2.1497259000000213,48.9077998
Secours catholique Sartrouville,Yvelines,Île-de-France,Ouvert,green,2.187177199999951,48.9439082
Secours catholique Chatou,Yvelines,Île-de-France,Ouvert,green,2.1570676999999705,48.902778
Secours catholique Houilles-Carrières,Yvelines,Île-de-France,Ouvert,green,2.1955937999999833,48.9174484
Secours catholique Le Vésinet / Le Pecq,Yvelines,Île-de-France,Ouvert,green,2.134335700000065,48.8936842
Secours catholique Saint Germain en Laye,Yvelines,Île-de-France,Ouvert,green,2.064917199999968,48.8930682
Secours catholique Croissy sur Seine,Yvelines,Île-de-France,Ouvert,green,2.146434699999986,48.8792869
Secours catholique Marly-le-Roi,Yvelines,Île-de-France,Ouvert,green,2.085111999999981,48.87759779999999
Secours catholique La Celle Saint Cloud / Bougival,Yvelines,Île-de-France,Ouvert,green,2.1305210000000443,48.8454647
Secours catholique Louveciennes,Yvelines,Île-de-France,Ouvert,green,2.1108517999999776,48.8582371
Secours catholique Noisy le Roi,Yvelines,Île-de-France,Ouvert,green,2.0667757999999594,48.8402145
Secours catholique Villepreux-Les Clayes,Yvelines,Île-de-France,Ouvert,green,1.9873848,48.8273064
Secours catholique Plaisir,Yvelines,Île-de-France,Ouvert,green,1.9441063,48.83256249999999
Secours catholique Beynes,Yvelines,Île-de-France,Ouvert,green,1.879007999999999,48.85007
Secours catholique Breval,Yvelines,Île-de-France,Ouvert,green,1.5365240999999514,48.9437569
Secours catholique Chesnay,Yvelines,Île-de-France,Ouvert,green,2.1234154999999646,48.82581889999999
Secours catholique Versailles Saint Louis,Yvelines,Île-de-France,Ouvert,green,2.1242463999999472,48.7981569
Secours catholique Versailles Ste Bernadette/St Symphorien,Yvelines,Île-de-France,Fermé,red,2.1559838,48.8070139
Secours catholique Saint Cyr l’Ecole,Yvelines,Île-de-France,Ouvert,green,2.061003000000028,48.8064569
Secours catholique Fontenay le Fleury,Yvelines,Île-de-France,Ouvert,green,2.0463862999999947,48.8121749
Secours catholique Trappes,Yvelines,Île-de-France,Ouvert,green,1.9998699000000215,48.7781751
Secours catholique La Queue Lez Yvelines,Yvelines,Île-de-France,Ouvert,green,1.7646791,48.8053603
Secours catholique Houdan,Yvelines,Île-de-France,Ouvert,green,1.602210600000035,48.7897038
"Epicerie sociale ""GAF"" du Secours Catholique",Yvelines,Île-de-France,Fermé,red,2.1567444,48.81195109999999
Secours catholique Versailles Sainte Élisabeth,Yvelines,Île-de-France,Ouvert,green,2.1395941,48.7963034
Secours catholique Guyancourt,Yvelines,Île-de-France,Ouvert,green,2.0735706,48.7741269
Secours catholique Vélizy Villacoublay,Yvelines,Île-de-France,Ouvert,green,2.180733299999929,48.78579389999999
Secours catholique Jouy en Josas,Yvelines,Île-de-France,Ouvert,green,2.1685216,48.7633221
Secours catholique Chevreuse,Yvelines,Île-de-France,Ouvert,green,2.039401699999985,48.7083004
Secours catholique Le Perray-Les Essarts,Yvelines,Île-de-France,Ouvert,green,1.8548533000000589,48.6947153
Secours catholique Rambouillet,Yvelines,Île-de-France,Ouvert,green,1.8271608999999671,48.64672699999999
Secours Catholique - Saint Arnoult en Yvelines,Yvelines,Île-de-France,Ouvert,green,1.9408384,48.5724544
Secours catholique Ablis-St Arnoult,Yvelines,Île-de-France,Ouvert,green,1.8338717,48.515167
Secours catholique de Châteaufort-Magny-Toussus-St Lambert des bois,Yvelines,Île-de-France,Ouvert,green,2.1021928000000116,48.7186119
Boutique solidaire de vêtements Mod’51,Yvelines,Île-de-France,Ouvert,green,2.039590999999973,48.7673784
Secours catholique Voisins le Bretonneux,Yvelines,Île-de-France,Ouvert,green,2.052967900000001,48.7549749
Secours catholique Saint Quentin les Sources,Yvelines,Île-de-France,Ouvert,green,2.0444916,48.78183799999999
Secours catholique Maurepas,Yvelines,Île-de-France,Ouvert,green,1.9423882,48.76124069999999
Résidence sociale Saint Germain en Laye,Yvelines,Île-de-France,Fermé,red,2.085258000000067,48.954339
Résidence sociale Nouvelle France,Yvelines,Île-de-France,Fermé,red,1.8953586999999743,48.9873658
Résidence sociale Paul Raoult,Yvelines,Île-de-France,Fermé,red,1.9141256999999996,48.9970978
Foyer de travailleurs migrants Mantes-la-Jolie,Yvelines,Île-de-France,Fermé,red,1.685444299999972,48.9923058
Foyer de travailleurs migrants de Porcheville,Yvelines,Île-de-France,Fermé,red,1.7622046000000182,48.9759728
Accueil d'urgence familles - Les Mureaux,Yvelines,Île-de-France,Fermé,red,1.9141256999999996,48.9970978
Accueil d'urgence - Les Mureaux,Yvelines,Île-de-France,Fermé,red,1.9141256999999996,48.9970978
Centre d'accueil d'urgence pour femmes victimes de violences,Yvelines,Île-de-France,Fermé,red,2.1323016000000052,48.804539
Centre d'accueil pour demandeurs d'asile de Porcheville,Yvelines,Île-de-France,Fermé,red,1.7622046000000182,48.9759728
Centre d'hébergement d'urgence pour migrants de Porcheville (Chum),Yvelines,Île-de-France,Fermé,red,1.7622046000000182,48.9759728
Pension de famille Grand Cormier,Yvelines,Île-de-France,Fermé,red,2.085258000000067,48.954339
Cada Grand Cormier,Yvelines,Île-de-France,Fermé,red,2.085258000000067,48.954339
Centre d'accueil pour demandeurs d'asile de Sartrouville,Yvelines,Île-de-France,Fermé,red,2.2049299000000246,48.94088110000001
Foyer de travailleurs migrants de Sartrouville,Yvelines,Île-de-France,Fermé,red,2.2049299000000246,48.94088110000001
Centre d'hébergement d'urgence pour migrants de Sartrouville,Yvelines,Île-de-France,Fermé,red,2.2049299000000246,48.94088110000001
Accueil d'urgence familles - Verneuil,Yvelines,Île-de-France,Ouvert,green,1.9704125000000658,48.9873827
Dispositif ALTO - Urgence familles,Yvelines,Île-de-France,Fermé,red,2.1323016000000052,48.804539
Chez Henry  Houilles/Carrières-sur-Seine,Yvelines,Île-de-France,Fermé,red,2.1877638,48.922525
Vestiboutique unité locale de Mantes-la-Jolie Croix-Rouge,Yvelines,Île-de-France,Modification,orange,1.6981160000000273,49.0004714
Epicerie sociale de Mantes la Jolie,Yvelines,Île-de-France,Ouvert,green,1.6997466000000259,48.9966786
Croix-Rouge Unité locale de Meulan en Yvelines,Yvelines,Île-de-France,Fermé,red,1.9127269,49.0053412
Vestiboutique - Croix Rouge Unité locale de Saint-Germain-en-Laye,Yvelines,Île-de-France,Modification,orange,2.0645821,48.893313
Vestiboutique Croix-rouge Française Sartrouville,Yvelines,Île-de-France,Fermé,red,2.162364499999967,48.9420186
Croix Rouge Unité locale de Sartrouville,Yvelines,Île-de-France,Fermé,red,2.1650158,48.9474442
Secours populaire Antenne des Mureaux (Mermoz),Yvelines,Île-de-France,Fermé,red,1.8954664,48.98930260000001
Secours populaire Antenne de Conflans Ste Honorine,Yvelines,Île-de-France,Modification,orange,2.113786,49.0050278
Secours populaire Antenne de Montesson,Yvelines,Île-de-France,Fermé,red,2.149492799999962,48.90827650000001
Secours populaire Antenne de Chatou-Croissy-Le Vésinet,Yvelines,Île-de-France,Fermé,red,2.1594445000000633,48.89929009999999
Secours populaire Comité de Meulan-en-Yvelines,Yvelines,Île-de-France,Fermé,red,1.9176515999999992,49.0117367
Secours populaire comité de Carrières sous Poissy,Yvelines,Île-de-France,Ouvert,green,2.0353174,48.9492177
Secours populaire comité de Poissy,Yvelines,Île-de-France,Fermé,red,2.037697,48.9312902
Collectif Etrangers Français en Yvelines (CEFY) - Conflans Sainte Honorine,Yvelines,Île-de-France,Fermé,red,2.102004299999976,49.003256
Point-justice de Chanteloup-les-Vignes (anciennement PAD),Yvelines,Île-de-France,Fermé,red,2.0298501,48.97256650000001
Centre Communal d'Action Sociale (CCAS) de Limay,Yvelines,Île-de-France,Fermé,red,1.7358547000000044,48.99205699999999
Permanence ADIL78  (Agence Départementale d'Information sur le Logement) à Magnanville,Yvelines,Île-de-France,Fermé,red,1.6960157,48.97712719999999
Centre de vie sociale Augustin Serre,Yvelines,Île-de-France,Modification,orange,1.7033383000000413,48.97644729999999
Permanence ADIL78 (Agence Départementale d'Information sur le Logement) à Sartrouville ,Yvelines,Île-de-France,Fermé,red,2.1976185,48.9419644
Permanence ADIL78  (Agence Départementale d'Information sur le Logement) à Montesson,Yvelines,Île-de-France,Fermé,red,2.1497768000000406,48.9084083
Permanence ADIL78  (Agence Départementale d'Information sur le Logement)  à Chatou,Yvelines,Île-de-France,Fermé,red,2.1602139999999963,48.8894781
Centre d'accueil et d'accompagnement à la réduction des risques des usagers de drogues (CAARUD) - Mantes la Jolie,Yvelines,Île-de-France,Fermé,red,1.7094048999999814,48.99146529999999
Centre de Protection Maternelle et Infantile (PMI) de Limay,Yvelines,Île-de-France,Fermé,red,1.7362307,48.99528919999999
Centre de Protection Maternelle et Infantile (PMI) des Mureaux,Yvelines,Île-de-France,Fermé,red,1.9112003,48.99287169999999
Centre de Protection Maternelle et Infantile (PMI) de Sartrouville,Yvelines,Île-de-France,Fermé,red,2.188157,48.9438443
Centre Hospitalier Intercommunal de Meulan-Les-Mureaux - Centre de Planification et d'Education Familiale de Meulan-les-Mureaux,Yvelines,Île-de-France,Fermé,red,1.9098008999999365,49.0031988
Centre de planification et d’éducation familiale (CPEF) de Poissy,Yvelines,Île-de-France,Fermé,red,2.045874,48.9314952
Centre de planification et d’éducation familiale (CPEF) de Saint-Germain-en-Laye,Yvelines,Île-de-France,Fermé,red,2.0857799999999997,48.8977291
Centre de planification et d’éducation familiale (CPEF) de Sartrouville,Yvelines,Île-de-France,Fermé,red,2.188157,48.9438443
Centre de planification et d’éducation familiale (CPEF) de Houilles,Yvelines,Île-de-France,Fermé,red,2.1861811,48.92711689999999
Centre de planification et d’éducation familiale (CPEF) du Vésinet,Yvelines,Île-de-France,Fermé,red,2.130749100000001,48.88276930000001
Permanence d'accès aux soins de santé (PASS) du Centre Hospitalier François QUESNAY,Yvelines,Île-de-France,Fermé,red,1.6745422,48.9985807
"Centre gratuit d'information, de dépistage et de diagnostic (CeGIDD) du Centre Hospitalier Intercommunal de Poissy / Saint-Germain-en-Laye",Yvelines,Île-de-France,Fermé,red,2.084649,48.8982479
C.H.R.S. ADOMA,Yvelines,Île-de-France,Fermé,red,1.8016566000000012,48.97441899999999
C.H.R.S. La Mandragore,Yvelines,Île-de-France,Fermé,red,1.7127126000000317,48.9739924
CHRS hotel social Saint Yves,Yvelines,Île-de-France,Fermé,red,1.6780098000000407,48.9927862
CHRS de Conflans St Honorine,Yvelines,Île-de-France,Fermé,red,2.1060324999999693,48.99929329999999
Hotel social saint benoit labre,Yvelines,Île-de-France,Fermé,red,2.0590703000000303,48.930958
CHRS la maison verte,Yvelines,Île-de-France,Fermé,red,2.0817804000000706,48.8932997
CHRS AFTAM,Yvelines,Île-de-France,Fermé,red,2.085258000000067,48.954339
CADA de Saint Germain en Laye,Yvelines,Île-de-France,Fermé,red,2.0918427000000293,48.94803449999999
CADA de Sartrouville,Yvelines,Île-de-France,Fermé,red,2.204909499999985,48.9408803
CADA de Gargenville,Yvelines,Île-de-France,Fermé,red,1.8016566000000012,48.97441899999999
Foyer Conflans Seine et Oise,Yvelines,Île-de-France,Fermé,red,2.0815939,49.0032489
Résidence sociale Alsace,Yvelines,Île-de-France,Fermé,red,1.714447699999937,48.99116639999999
"Centre de Soin, d'Accompagnement et de Prévention en Addictologie (CSAPA) résidentiel KAIROS",Yvelines,Île-de-France,Fermé,red,2.047275300000024,48.9675525
Centre Médico-Psychologique Infanto-juvénile (CMPI) d'Aubergenville,Yvelines,Île-de-France,Fermé,red,1.8519705999999587,48.9590091
Centre médico-psychologique (CMP) d'Aubergenville,Yvelines,Île-de-France,Fermé,red,1.8474635,48.9706783
Centre médico-psychologique infanto-juvénile (CMPI) de Chanteloup-les-Vignes,Yvelines,Île-de-France,Fermé,red,2.0273007,48.97280440000001
Centre médico-psychologique infanto-juvénile (CMPI) de Conflans-Sainte-Honorine,Yvelines,Île-de-France,Fermé,red,2.1053251,48.9992166
Centre médico-psychologique de Houilles,Yvelines,Île-de-France,Ouvert,green,2.1854306999999835,48.9213288
Centre médico-psychologique (CMP) enfants-adolescents Le Vésinet,Yvelines,Île-de-France,Fermé,red,2.1371916,48.894287
"Centre médico-psychologique (CMP) adultes ""Maisons-Laffitte""",Yvelines,Île-de-France,Fermé,red,2.1430878,48.94708749999999
Centre médico-psychologique (CMP) - Maisons Lafitte,Yvelines,Île-de-France,Ouvert,green,2.149590900000021,48.9450504
Centre Médico-Psychologique (CMP) de Mantes-la-Jolie,Yvelines,Île-de-France,Fermé,red,1.6948504,48.9947935
"Centre médico-psychologique (CMP) adultes ""Marly le Roi""",Yvelines,Île-de-France,Fermé,red,2.093620099999999,48.87774460000001
Centre Médico-psychologique Infanto-juvénile (CMPI) de Maule,Yvelines,Île-de-France,Fermé,red,1.851654999999937,48.91326
Centre Gilbert Raby,Yvelines,Île-de-France,Fermé,red,1.9283407000000352,49.0078048
Centre d’Accueil Thérapeutique à Temps Partiel des Mureaux,Yvelines,Île-de-France,Fermé,red,1.9111152000000402,48.9880217
Le Centre médico-psychologique (CMP) adultes Les Mureaux,Yvelines,Île-de-France,Fermé,red,1.9110618,48.988018
"Le Centre médico-psychologique pour enfants et adolescents (CMPEE) ""La Pommeraie""",Yvelines,Île-de-France,Fermé,red,1.9486768,48.8259143
Centre médico-psychologique infanto-juvénile (CMPI) de Poissy,Yvelines,Île-de-France,Fermé,red,2.0443369,48.93246649999999
Emmaüs Communauté Bougival,Yvelines,Île-de-France,Fermé,red,2.1174091,48.87910189999999
Solidarité Chômeurs,Yvelines,Île-de-France,Modification,orange,2.063077,48.8904408
Maison de secteur,Yvelines,Île-de-France,Fermé,red,1.9148708999999826,48.9990906
Centre Médico-psychologique Infanto-juvénile (CMPI) des Mureaux,Yvelines,Île-de-France,Fermé,red,1.9150270000000091,48.99845740000001
Centre de Cure Ambulatoire en Alcoologie,Yvelines,Île-de-France,Ouvert,green,1.9147583000000168,48.9962564
Ressourcerie APTIMA,Yvelines,Île-de-France,Fermé,red,1.6796019,48.99411449999999
Pôle social Simone Veil,Yvelines,Île-de-France,Fermé,red,2.0447572,48.927133
Centre Communal d'Action Sociale (CCAS) Maison bleue - Poissy,Yvelines,Île-de-France,Fermé,red,2.041491599999972,48.9291873
HUAS Magnanville,Yvelines,Île-de-France,Fermé,red,1.6964785999999776,48.9788992
CADA Les Mureaux,Yvelines,Île-de-France,Fermé,red,1.895466400000032,48.98930259999999
CADA de Conflans Sainte Honorine,Yvelines,Île-de-France,Fermé,red,2.08159390000003,49.0032489
PRAHDA Acheres,Yvelines,Île-de-France,Fermé,red,2.076033700000039,48.9884993
PRAHDA Conflans,Yvelines,Île-de-France,Fermé,red,2.085846599999968,49.0067761
PRAHDA Maurepas,Yvelines,Île-de-France,Fermé,red,1.9216934999999467,48.76199010000001
HUDA Mantes Braunstein,Yvelines,Île-de-France,Fermé,red,1.708895900000016,48.99688539999999
HUDA Porcheville,Yvelines,Île-de-France,Fermé,red,1.7622046000000182,48.9759728
PADA Limay,Yvelines,Île-de-France,Fermé,red,1.7413245999999845,48.99170830000001
HUDA de Sartrouville,Yvelines,Île-de-France,Fermé,red,2.203340199999957,48.94940649999999
CHU - Hotel Social du Parc,Yvelines,Île-de-France,Fermé,red,2.034275100000059,48.9407058
Association AMISEY,Yvelines,Île-de-France,Fermé,red,2.0284286999999495,48.9210163
Point Information Médiation Multi Services (PIMMS) Des Mureaux,Yvelines,Île-de-France,Fermé,red,1.9128188,48.9938685
Planning Familial 78,Yvelines,Île-de-France,Fermé,red,1.9106365000000096,48.9809142
CHUM Sartrouville,Yvelines,Île-de-France,Fermé,red,2.158431,48.941106
CHRS Relais de Thun,Yvelines,Île-de-France,Fermé,red,1.9320231000000376,49.0086239
Centre Communal d'Action Sociale (CCAS) de Meulan,Yvelines,Île-de-France,Modification,orange,1.9101716000000124,49.005029
HUDA Mezy,Yvelines,Île-de-France,Fermé,red,1.8831900000000132,49.00061249999999
Les Restos du Coeur - Les Relais du Coeur des Yvelines - SIEGE,Yvelines,Île-de-France,Fermé,red,1.9781097000000045,48.8298123
Mission locale Conflans Sainte Honorine,Yvelines,Île-de-France,Fermé,red,2.0938131,48.99329049999999
Maison de sante pluriprofessionnelle Philippe Marze Les Mureaux,Yvelines,Île-de-France,Fermé,red,1.9106037,48.9892829
Mission locale de Sartrouville,Yvelines,Île-de-France,Fermé,red,2.1601768,48.9371952
Travail temporaire Ami services,Yvelines,Île-de-France,Fermé,red,2.1366113,48.9530714
Médiathèque Les Mureaux,Yvelines,Île-de-France,Fermé,red,1.914344700000015,48.9884701
Croix Rouge Française - Unité locale les Mureaux,Yvelines,Île-de-France,Fermé,red,1.895092,48.98564529999999
Centre de vie sociale le Patio,Yvelines,Île-de-France,Fermé,red,1.715861000000018,48.968441
Bibliothèque du Domaine de la Vallée,Yvelines,Île-de-France,Fermé,red,1.7158650999999736,48.96884279999999
Centre de vie sociale Arche en ciel,Yvelines,Île-de-France,Fermé,red,1.6949756000000207,48.9819487
"La Sève, antenne de solidarité évangélique",Yvelines,Île-de-France,Ouvert,green,2.073701000000028,48.8937007
ADOMA,Yvelines,Île-de-France,Fermé,red,2.072873100000038,48.8967732
Habitat et humanisme,Yvelines,Île-de-France,Fermé,red,2.0920995000000175,48.8972698
"Centre de Soin, d'Accompagnement et de Prévention en Addictologie (CSAPA) - Saint-Germain-en-Laye",Yvelines,Île-de-France,Fermé,red,2.0828676,48.8978687
Point de garde médicale de Saint-Germain-en-Laye,Yvelines,Île-de-France,Fermé,red,2.0933813999999984,48.8982103
Permanence France Victimes 78 Commissariat de Saint-Germain-en-Laye,Yvelines,Île-de-France,Fermé,red,2.0933115,48.8999591
Centre Communal d'Action Sociale (CCAS) - Saint Germain en Laye,Yvelines,Île-de-France,Fermé,red,2.083716500000037,48.8997444
Association générale des familles,Yvelines,Île-de-France,Ouvert,green,2.0933813999999984,48.8982103
Maison de la famille AGASEC - Saint-Germain-en-Laye,Yvelines,Île-de-France,Fermé,red,2.0792172,48.8959039
Centre socio-culturel La Soucoupe,Yvelines,Île-de-France,Modification,orange,2.0644680000000335,48.891954
Petits frères des pauvres,Yvelines,Île-de-France,Fermé,red,2.0639539,48.88494580000001
ASTI (Association de Solidarité avec Tous les Immigrés) - Saint-Germain-en-Laye,Yvelines,Île-de-France,Fermé,red,2.092571000000021,48.8978907
AGIR ABCD,Yvelines,Île-de-France,Ouvert,green,2.0847122000000127,48.8995677
AMI Services Boucle de Seine,Yvelines,Île-de-France,Fermé,red,2.10547489999999,48.8956086
Mode d'emploi Les Mureaux,Yvelines,Île-de-France,Fermé,red,1.9110286999999744,48.98826869999999
CAP Santé,Yvelines,Île-de-France,Fermé,red,1.9104666000000634,49.0055251
Territoire d’action départementale – Seine Aval,Yvelines,Île-de-France,Ouvert,green,1.7103692000000592,48.9897059
Territoire d’action départementale – Boucle de Seine,Yvelines,Île-de-France,Ouvert,green,2.155357399999957,48.9021938
Emmaüs Communauté Dennemont,Yvelines,Île-de-France,Fermé,red,1.6795697000000018,49.01808430000001
Section de la Ligue des droits de l'Homme (LDH) - Mantes,Yvelines,Île-de-France,Fermé,red,1.7077556000000413,48.9752325
La Croix bleue Poissy - Mantes La Jolie,Yvelines,Île-de-France,Fermé,red,2.0379597999999532,48.9288221
Bibliothèque Jean Anouilh,Yvelines,Île-de-France,Ouvert,green,1.7026633000000402,48.9753573
Comptoir Jacques Brel,Yvelines,Île-de-France,Fermé,red,1.7087976000000253,48.97616619999999
Centre Social et Culturel-Espace Rosa PARKS,Yvelines,Île-de-France,Fermé,red,2.0266704000000573,48.94262519999999
Centre social L’Agora,Yvelines,Île-de-France,Ouvert,green,1.9611469999999827,48.7722144
Maison de quartier Jacques MIQUEL,Yvelines,Île-de-France,Ouvert,green,1.964168500000028,48.7589338
Centre de Vie Sociale Aimé Césaire,Yvelines,Île-de-France,Fermé,red,1.6860560000000078,48.99742299999999
Centre de Vie Sociale Gassicourt,Yvelines,Île-de-France,Fermé,red,1.7009714,48.9969733
Centre de Vie Sociale Peintres Médecins,Yvelines,Île-de-France,Fermé,red,1.6852969,49.0050187
Centre de Vie Sociale Les Garennes,Yvelines,Île-de-France,Fermé,red,1.6944871,49.00193830000001
Maison des familles Flora Tristan,Yvelines,Île-de-France,Fermé,red,1.948829,48.827866
"Maison des Familles ""La Mosaïque""",Yvelines,Île-de-France,Ouvert,green,1.9526590000000397,48.8200349
Centre Social Vanpoulle,Yvelines,Île-de-France,Fermé,red,2.0558945,48.9374114
Mode d'emploi Sartrouville,Yvelines,Île-de-France,Fermé,red,2.1568428000000495,48.9371911
Mode d'emploi Mantes-la-Jolie,Yvelines,Île-de-France,Fermé,red,1.7162597,48.99012039999999
Mode d'emploi Saint Germain-en-Laye,Yvelines,Île-de-France,Ouvert,green,2.0895313999999416,48.8961365
"Centre de Soin, d'Accompagnement et de Prévention en Addictologie (CSAPA) - Mantes la Jolie",Yvelines,Île-de-France,Fermé,red,1.7046433000000434,48.9893702
CADI Plaisir,Yvelines,Île-de-France,Fermé,red,1.9686934000000065,48.8275053
CBL Réagir Saint-Cyr-l’Ecole,Yvelines,Île-de-France,Fermé,red,2.058810200000039,48.80864829999999
Permanence de l'association DIRE à Plaisir,Yvelines,Île-de-France,Fermé,red,1.948829,48.827866
Plaisir vestiaire - antenne du Valibout,Yvelines,Île-de-France,Fermé,red,1.9554669999999987,48.8220223
Groupe de parole Poissy,Yvelines,Île-de-France,Fermé,red,2.0437651,48.933027
Permanence ADIL78 (Agence Départemental d'Information sur le Logement) à Carrières-sur-Seine,Yvelines,Île-de-France,Fermé,red,2.176480500000025,48.9061351
Centre d'information sur les droits des femmes et des familles (CIDFF) au commissariat de Mantes-la-Jolie,Yvelines,Île-de-France,Fermé,red,1.6958714,48.9924598
Maison des Associations - Meulan Paradis,Yvelines,Île-de-France,Fermé,red,1.9152907999999798,49.0110724
Permanence d'aide aux victimes au commissariat de Plaisir,Yvelines,Île-de-France,Fermé,red,1.9629424,48.8187909
Hôpital de jour de Buchelay,Yvelines,Île-de-France,Fermé,red,1.682463900000016,48.9786062
Centre médico-psycho-pédagogique (CMPP) « Mantes-la-Jolie »,Yvelines,Île-de-France,Fermé,red,1.7088264999999865,48.9907385
Hôpital de jour,Yvelines,Île-de-France,Fermé,red,1.717278800000031,48.9922267
Centre médico-psychologique infanto-juvénile (CMPI) d'Achères,Yvelines,Île-de-France,Fermé,red,2.075096599999999,48.96943940000001
Hôpital de jour infanto-juvénile de Poissy,Yvelines,Île-de-France,Fermé,red,2.0443369,48.93246649999999
"Centre Médico-Psychologique (CMP) enfants-adolescents ""John Bowlby""",Yvelines,Île-de-France,Fermé,red,2.073784,48.894398
"Centre médico-psychologique (CMP) enfants-adolescents ""Les Deux Rives""",Yvelines,Île-de-France,Fermé,red,2.1681396,48.94000860000001
"Hôpital de jour jeunes enfants ""Roger Misès A"", ""B' et ""C""",Yvelines,Île-de-France,Fermé,red,2.1324422999999797,48.9236124
Centre médico-psycho-pédagogique (CMPP) Saint-germain-en-laye,Yvelines,Île-de-France,Fermé,red,2.0675741000000016,48.8943615
Centre médico-psycho-pédagogique (CMPP)  infanto-juvénile,Yvelines,Île-de-France,Fermé,red,2.0906936999999743,48.8953669
Relais Jeunes et Familles 78,Yvelines,Île-de-France,Fermé,red,2.084649000000013,48.8982479
"Hôpital de Jour pour enfants ""La Rencontre""",Yvelines,Île-de-France,Fermé,red,1.9053006,49.004658
Hôpital de Jour J.B. Corot,Yvelines,Île-de-France,Fermé,red,1.7191991,48.98496479999999
Le Centre médico-psychologique (CMP) adultes de Meulan,Yvelines,Île-de-France,Fermé,red,1.9098009,49.0031988
Unité d’hospitalisation le Zéphyr,Yvelines,Île-de-France,Fermé,red,1.933080700000005,48.987033
Hôpital de jour,Yvelines,Île-de-France,Fermé,red,1.9120531,48.98209370000001
Centre d’accueil et de soins médico-psychologique (CASMP) de Conflans,Yvelines,Île-de-France,Fermé,red,2.0957993,48.9949957
Service d'urgence et d'accueil du CHIPS - Site de Poissy,Yvelines,Île-de-France,Fermé,red,2.0217618,48.9188675
Point d'eau,Yvelines,Île-de-France,Ouvert,green,2.197819699999968,48.7823649
Point d'eau,Yvelines,Île-de-France,Ouvert,green,2.2074486000000206,48.7798355
Point d'eau,Yvelines,Île-de-France,Ouvert,green,2.1708230000000412,48.782946
Sanitaires,Yvelines,Île-de-France,Ouvert,green,2.1820817999999917,48.7850956
Foyer d’hébergement le Manoir,Yvelines,Île-de-France,Fermé,red,2.059992999999963,48.9820297
Centre d’accueil de jour,Yvelines,Île-de-France,Fermé,red,2.0305963,48.9661212
Groupe d’entraide mutuelle la Solidarité,Yvelines,Île-de-France,Fermé,red,2.110958699999969,49.0052376
Centre médico-psychologique (CMP) adultes d’Achères,Yvelines,Île-de-France,Fermé,red,2.0624329,48.9569496
Centre médico-psychologique (CMP) adultes de Poissy,Yvelines,Île-de-France,Fermé,red,2.0219057,48.9189154
Cap santé 78 - dispositif d'écoute psychologique,Yvelines,Île-de-France,Ouvert,green,2.034275100000059,48.9407058
Hôpital de jour adultes de Poissy,Yvelines,Île-de-France,Fermé,red,2.0219057,48.9189154
Consultations thérapie du couple et de la famille - Centre Hospitalier de Poissy,Yvelines,Île-de-France,Fermé,red,2.021905800000013,48.9189154
Groupe d’entraide mutuelle Arc-en-Ciel,Yvelines,Île-de-France,Fermé,red,2.045867599999999,48.92756969999999
Centre médico-psychologique (CMP) adultes Saint-Germain-en-Laye,Yvelines,Île-de-France,Fermé,red,2.084649,48.8982479
Hôpital de jour et CATTP adultes Saint-Germain-en-Laye,Yvelines,Île-de-France,Fermé,red,2.0757451,48.8989376
Hôpital de jour adultes de Sartrouville,Yvelines,Île-de-France,Fermé,red,2.1624569,48.9421298
"Hôpital de jour adultes ""Henri Matisse""",Yvelines,Île-de-France,Fermé,red,2.152032,48.90557199999999
Service d’accompagnement à la vie sociale Leopold Bellan,Yvelines,Île-de-France,Fermé,red,2.1556331,48.9380439
Groupe d’entraide mutuelle Leopold Bellan,Yvelines,Île-de-France,Fermé,red,2.1665250999999444,48.9402076
CMP adultes de Verneuil-sur-Seine,Yvelines,Île-de-France,Fermé,red,1.97126209999999,48.9836173
Espace de médiation thérapeutique l’Arc-en-Ciel,Yvelines,Île-de-France,Fermé,red,1.933080700000005,48.987033
"Foyer d'accueil médicalisé ""Guy Lamarque""",Yvelines,Île-de-France,Fermé,red,1.9668338000000176,48.9416138
Maison du voisinage,Yvelines,Île-de-France,Ouvert,green,1.8470221000000038,48.97293039999999
Centre social “La Maison de Tous”,Yvelines,Île-de-France,Fermé,red,1.8600352999999359,48.9564983
Permanence Centre d'information sur les droits des femmes et des familles (CIDFF) à la Maison des Associations - Aubergenville,Yvelines,Île-de-France,Fermé,red,1.855339899999999,48.9628626
Permanence du Centre d'information sur les droits des femmes et des familles (CIDFF) au Pôle multiservices Michel Colucci - Poissy,Yvelines,Île-de-France,Fermé,red,2.0274041000000125,48.9427483
Permanence du Centre d'Information sur les Droits des Femmes et des Familles (CIDFF) à l'Espace Romagné,Yvelines,Île-de-France,Fermé,red,2.097680999999999,48.997595
Permanence du Centre d'information sur les droits des femmes et des familles (CIDFF) au Commissariat de Police des Mureaux,Yvelines,Île-de-France,Fermé,red,1.9113065,48.9859605
Centre Communal d'Action Sociale (CCAS)de Poissy - permanences du Centre d'information sur les droits des femmes et des familles (CIDFF),Yvelines,Île-de-France,Fermé,red,2.044757200000049,48.927133
Centre Communal d'Action Sociale (CCAS) de Verneuil sur Seine,Yvelines,Île-de-France,Fermé,red,1.9769604000000527,48.97921420000001
Permanence du Centre d'information sur les droits des femmes et des familles (CIDFF) au Centre socio culturel Resedas - Vernouillet,Yvelines,Île-de-France,Fermé,red,1.9854545000000599,48.9766781
"Hôpital de jour adultes ""Jean Ernst""",Yvelines,Île-de-France,Fermé,red,2.0924757,48.8730106
Groupe d'entraide mutuelle Les Mureaux,Yvelines,Île-de-France,Fermé,red,1.9128087999999934,48.9936929
CHU la petite arche,Yvelines,Île-de-France,Fermé,red,1.7149580000000242,48.98932300000001
Ecole Française des Femmes de Mantes la Jolie,Yvelines,Île-de-France,Fermé,red,1.6856506000000309,48.9974477
Point information Jeunesse (PIJ) d'Aubergenville,Yvelines,Île-de-France,Fermé,red,1.8600353,48.9564983
Bureau d'information jeunesse (BIJ) Achères,Yvelines,Île-de-France,Modification,orange,2.0756332,48.9692816
Secours catholique d'Andrésy,Yvelines,Île-de-France,Ouvert,green,2.0608565,48.98171560000001
Centre Communal d'Action Sociale (CCAS) de Chanteloup les Vignes,Yvelines,Île-de-France,Fermé,red,2.0298722,48.9725551
Croix-Rouge Unité locale de la boucle seine sud - site Europe,Yvelines,Île-de-France,Fermé,red,2.1591997000000447,48.9054504
Secours catholique d'Houdan,Yvelines,Île-de-France,Ouvert,green,1.5954596999999922,48.79116459999999
Croix-Rouge Française - Halte Garderie « Les Souris Verte »,Yvelines,Île-de-France,Fermé,red,1.604135700000029,48.78929309999999
Bureau information jeunesse (BIJ) Les Mureaux,Yvelines,Île-de-France,Fermé,red,1.910356800000045,48.9924153
Secteur d'Action Sociale (SAS) des Mureaux,Yvelines,Île-de-France,Fermé,red,1.9133136000000377,48.9907483
Secteur d'Action Sociale (SAS ) de Mantes-la-Ville,Yvelines,Île-de-France,Fermé,red,1.7073392,48.9765773
Croix Rouge unité Locale de Maule – Neauphle – Monfort,Yvelines,Île-de-France,Fermé,red,1.851654999999937,48.91326
Secteur d'Action Sociale (SAS) de Meulan-en-Yvelines,Yvelines,Île-de-France,Fermé,red,1.9089309,49.0029525
Secteur d'Action Sociale (SAS) de Poissy,Yvelines,Île-de-France,Fermé,red,2.037469099999953,48.9309751
Secteur d'Action Sociale (SAS) de Sartrouville,Yvelines,Île-de-France,Fermé,red,2.1759222,48.9348913
Permanence à l'écoutille de Chatou,Yvelines,Île-de-France,Fermé,red,2.1590556999999535,48.90381139999999
Permanence à l'écoutille de Chatou (rue camille perrier),Yvelines,Île-de-France,Fermé,red,2.1575785,48.8910538
Permanence à l'écoutille de Carrières sur Seine,Yvelines,Île-de-France,Fermé,red,2.1860567,48.9137014
Permanence au Petit Pont,Yvelines,Île-de-France,Fermé,red,2.1592268,48.9039661
Centre provisoire d'hébergement,Yvelines,Île-de-France,Ouvert,green,1.71366050000006,48.9895266
"Groupe d'entraide mutuelle ""Equilibre""",Yvelines,Île-de-France,Fermé,red,2.128034599999978,48.82430429999999
Groupe d'entraide mutuelle Versailles,Yvelines,Île-de-France,Fermé,red,2.138593300000025,48.79720589999999
Secteur d'Action Sociale (SAS) de Mantes-la-Jolie,Yvelines,Île-de-France,Fermé,red,1.6935897,49.0047912
Secteur d'Action Sociale (SAS)  de Limay,Yvelines,Île-de-France,Fermé,red,1.7362307,48.99528919999999
Secteur d'Action Sociale (SAS) de Chanteloup-les-Vignes,Yvelines,Île-de-France,Fermé,red,2.0267221999999947,48.9721327
Secteur d'Action Sociale (SAS)  de Conflans-Sainte-Honorine,Yvelines,Île-de-France,Fermé,red,2.105547500000057,48.9992555
HUDA Triel sur Seine,Yvelines,Île-de-France,Fermé,red,2.005748799999992,48.9775629
Permanence de la Ligue des Droits de l'Homme (LDH) - Chanteloup-les-Vignes,Yvelines,Île-de-France,Fermé,red,2.0313979000000018,48.9719837
"Bibliothèque ""Salle pinsard""",Yvelines,Île-de-France,Fermé,red,1.8233566999999766,48.8792052
Centre Communal d'Action Sociale (CCAS) - Arnouville-lès-Mantes,Yvelines,Île-de-France,Ouvert,green,1.7311028999999962,48.9112368
"Bibliothèque ""le temps libre""",Yvelines,Île-de-France,Fermé,red,1.7284650000000283,48.908962
Centre Communal d'Action Sociale (CCAS) - Bennecourt,Yvelines,Île-de-France,Fermé,red,1.5694697000000133,49.04052000000001
Centre Communal d'Action Sociale (CCAS) - Boissy Mauvoisin,Yvelines,Île-de-France,Ouvert,green,1.5795206000000235,48.96448640000001
Centre Communal d'Action Sociale (CCAS) -  Bonnières-sur-Seine,Yvelines,Île-de-France,Ouvert,green,1.5786617999999635,49.0371511
Centre Communal d'Action Sociale (CCAS)  de Buchelay,Yvelines,Île-de-France,Fermé,red,1.6724484999999731,48.9803594
Centre Communal d'Action Sociale (CCAS) de Dammartin en Serve,Yvelines,Île-de-France,Fermé,red,1.6188399999999774,48.9028515
CCAS Fontenay Mauvoisin,Yvelines,Île-de-France,Ouvert,green,1.6532468999999992,48.96601229999999
Centre Communal d'Action Sociale (CCAS) de Freneuse,Yvelines,Île-de-France,Fermé,red,1.600631900000053,49.04818700000001
Permanence du bus Protection Maternelle et Infantile (PMI) - Freneuse,Yvelines,Île-de-France,Fermé,red,1.6002833999999666,49.037164
Centre Communal d'Action Sociale (CCAS)  de Gommecourt,Yvelines,Île-de-France,Fermé,red,1.5943581000000222,49.07524730000001
Centre Communal d'Action Sociale (CCAS)  de Guerville,Yvelines,Île-de-France,Fermé,red,1.7347985999999764,48.94528450000001
Bibliothèque,Yvelines,Île-de-France,Ouvert,green,1.5455719999999928,49.06103900000001
Centre Communal d'Action Sociale (CCAS)  de Magnanville,Yvelines,Île-de-France,Fermé,red,1.6803730000000314,48.967384
Les Restos du Coeur de Bonnières-sur-Seine,Yvelines,Île-de-France,Fermé,red,1.5845394,49.03413479999999
Les Restos du Coeur de Mantes-la-Jolie,Yvelines,Île-de-France,Fermé,red,1.6931260000000066,48.9951344
Les Restos du Coeur de Vaux sur Seine,Yvelines,Île-de-France,Fermé,red,1.9678367999999864,49.0037971
Les Restos du Coeur de Vernouillet,Yvelines,Île-de-France,Fermé,red,1.9857002999999622,48.9763975
Les Restos du Coeur de Triel sur Seine,Yvelines,Île-de-France,Fermé,red,2.00961099999995,48.9737826
Les Restos du Coeur de Chanteloup-les-Vignes,Yvelines,Île-de-France,Fermé,red,2.0333742,48.9739182
Les Restos du Cœur de Beynes,Yvelines,Île-de-France,Fermé,red,1.8819407999999385,48.8499545
Les Restos du Coeur - Ateliers socio-linguistiques,Yvelines,Île-de-France,Fermé,red,1.9568289999999706,48.8207582
Les Restos du Coeur de Plaisir,Yvelines,Île-de-France,Fermé,red,1.9545303,48.830012
Centre Communal d'Action Sociale (CCAS) de Moisson,Yvelines,Île-de-France,Fermé,red,1.673518,49.0718466
Centre Communal d'Action Sociale (CCAS)  de Rosny sur Seine,Yvelines,Île-de-France,Fermé,red,1.642849999999953,48.996331
Centre socio-culturel (CSC) de Rosny sur Seine - Oh!41,Yvelines,Île-de-France,Fermé,red,1.6352797,49.0000758
Centre Communal d'Action Sociale (CCAS) de Septeuil,Yvelines,Île-de-France,Fermé,red,1.6797959000000446,48.8925866
Permanence du bus Protection Maternelle et Infantile (PMI) -  Septeuil,Yvelines,Île-de-France,Fermé,red,1.6797959000000446,48.8925866
Permanence du bus Protection Maternelle et Infantile (PMI) - Bréval,Yvelines,Île-de-France,Fermé,red,1.5347825000000057,48.9440227
Permanence du bus Protection Maternelle et Infantile (PMI) - Bonnières sur Seine,Yvelines,Île-de-France,Fermé,red,1.5871548,49.0361328
Permanence du bus Protection Maternelle et Infantile (PMI) - Maule,Yvelines,Île-de-France,Fermé,red,1.849188799999979,48.9091045
Permanence du bus Protection Maternelle et Infantile (PMI) - Beynes,Yvelines,Île-de-France,Fermé,red,1.875318200000038,48.85591099999999
Centre Communal d'Action Sociale (CCAS) de Mantes-la-Ville,Yvelines,Île-de-France,Fermé,red,1.7118007999999918,48.97970489999999
Point information Jeunesse (PIJ) Mantes-la-Ville,Yvelines,Île-de-France,Fermé,red,1.7118007999999918,48.97970489999999
Services d'écrivains publics,Yvelines,Île-de-France,Ouvert,green,1.6960156999999754,48.97712719999999
Centre Communal d'Action Sociale (CCAS) de Follainville-Dennemont,Yvelines,Île-de-France,Modification,orange,1.713819400000034,49.0217784
Centre Communal d'Action Sociale (CCAS) de Fontenay St Père,Yvelines,Île-de-France,Fermé,red,1.7577189999999518,49.0242549
Centre Communal d'Action Sociale (CCAS) de Gargenville,Yvelines,Île-de-France,Fermé,red,1.8101293,48.9898334
Centre Communal d'Action Sociale (CCAS) d'Issou,Yvelines,Île-de-France,Fermé,red,1.7934388999999555,48.9884795
Point Justice de Limay,Yvelines,Île-de-France,Fermé,red,1.7358547000000044,48.99205699999999
Bureau information jeunesse (BIJ) de Limay,Yvelines,Île-de-France,Modification,orange,1.7358547000000044,48.99205699999999
Centre Communal d'Action Sociale (CCAS) de Porcheville,Yvelines,Île-de-France,Fermé,red,1.7765276000000085,48.9715938
Bibliothèque,Yvelines,Île-de-France,Ouvert,green,1.6888639999999668,49.04040669999999
Centre Communal d'Action Sociale (CCAS) d'Aubergenville,Yvelines,Île-de-France,Fermé,red,1.8558745999999928,48.95912289999999
Espace Emploi Formation,Yvelines,Île-de-France,Fermé,red,1.8600352999999359,48.9564983
Centre Communal d'Action Sociale (CCAS) de Bazemont,Yvelines,Île-de-France,Modification,orange,1.8656955000000153,48.9248719
Centre Communal d'Action Sociale (CCAS) de Bouafle,Yvelines,Île-de-France,Fermé,red,1.8970371999999998,48.96577599999999
Centre Communal d'Action Sociale (CCAS) d'Ecquevilly,Yvelines,Île-de-France,Fermé,red,1.9225443000000269,48.9486904
Centre Communal d'Action Sociale (CCAS) d’Epône,Yvelines,Île-de-France,Fermé,red,1.8127785000000358,48.9575399
Vestiaire municipal,Yvelines,Île-de-France,Fermé,red,1.8130813000000217,48.957288
Centre Communal d'Action Sociale (CCAS) de Flins sur Seine,Yvelines,Île-de-France,Modification,orange,1.875151800000026,48.9693706
Centre Communal d'Action Sociale (CCAS) d'Hardricourt,Yvelines,Île-de-France,Fermé,red,1.8943771000000424,49.0079105
CCAS de Jambville,Yvelines,Île-de-France,Ouvert,green,1.8538320000000112,49.0460884
Bibliothèque de Jambville,Yvelines,Île-de-France,Fermé,red,1.8513339999999516,49.04783200000001
Centre Communal d'Action Sociale (CCAS) de Juziers,Yvelines,Île-de-France,Fermé,red,1.8457942000000003,48.9929982
Bibliothèque Rose Bily,Yvelines,Île-de-France,Fermé,red,1.844257999999968,48.992433
Centre Communal d'Action Sociale (CCAS) de Mareil sur Mauldre,Yvelines,Île-de-France,Fermé,red,1.865522100000021,48.89439429999999
Centre Communal d'Action Sociale (CCAS) de Maule,Yvelines,Île-de-France,Fermé,red,1.850435100000027,48.9116412
Actions pour le Savoir,Yvelines,Île-de-France,Ouvert,green,1.851654999999937,48.91326
Centre Communal d'Action Sociale (CCAS) de Mezières sur Seine,Yvelines,Île-de-France,Fermé,red,1.7969399999999496,48.9614972
Bibliothèque de Oinville,Yvelines,Île-de-France,Modification,orange,1.8522596999999905,49.0286042
Centre Communal d'Action Sociale (CCAS) -  Les Alluets-le-Roi,Yvelines,Île-de-France,Fermé,red,1.9182750999999598,48.9138953
Centre Communal d'Action Sociale (CCAS) d'Andrésy,Yvelines,Île-de-France,Fermé,red,2.0606295000000046,48.9823366
Centre Communal d'Action Sociale (CCAS) de Conflans Espace Romagné,Yvelines,Île-de-France,Fermé,red,2.097680999999966,48.997595
Centre Communal d'Action Sociale (CCAS) de Maurecourt,Yvelines,Île-de-France,Fermé,red,2.0626786000000266,48.9964147
La bibliothèque Berthe Morisot,Yvelines,Île-de-France,Fermé,red,2.0642554999999447,48.9997747
Centre Communal d'Action Sociale (CCAS) de Triel sur Seine,Yvelines,Île-de-France,Fermé,red,2.0095479000000296,48.9737722
Centre Communal d'Action Sociale (CCAS) d'Achères,Yvelines,Île-de-France,Fermé,red,2.070124899999996,48.9606899
Centre Communal d'Action Sociale (CCAS) de Carrières-sous-Poissy,Yvelines,Île-de-France,Fermé,red,2.0274041000000125,48.9427483
Centre Communal d'Action Sociale (CCAS) de Medan,Yvelines,Île-de-France,Fermé,red,1.9960834999999406,48.9529949
Centre Communal d'Action Sociale (CCAS) d'Orgeval,Yvelines,Île-de-France,Fermé,red,1.9747477,48.9182824
Bibliothèque d'Aigremont,Yvelines,Île-de-France,Fermé,red,2.0188888,48.9018336
Centre Communal d'Action Sociale (CCAS) de Chambourcy,Yvelines,Île-de-France,Fermé,red,2.03948790000004,48.90584099999999
Ecoute et Soutien pour l’emploi,Yvelines,Île-de-France,Fermé,red,2.0457437000000027,48.9033441
Numérique pour tous,Yvelines,Île-de-France,Ouvert,green,2.0631997,48.8868799
FRES (Fourqueux-Mareil Relais Emploi Solidarité),Yvelines,Île-de-France,Fermé,red,2.062705400000027,48.88673559999999
Centre Communal d'Action Sociale (CCAS) - Le Pecq,Yvelines,Île-de-France,Fermé,red,2.1062475999999606,48.8974414
Centre Communal d'Action Sociale (CCAS) de Bougival,Yvelines,Île-de-France,Fermé,red,2.139853899999999,48.8602005
Permanence Conseil juridique,Yvelines,Île-de-France,Fermé,red,2.1398538999999346,48.8602005
Permanences emploi et insertion,Yvelines,Île-de-France,Fermé,red,2.1398679999999786,48.860795
Centre Communal d'Action Sociale (CCAS) de l'étang la ville,Yvelines,Île-de-France,Fermé,red,2.0726878000000397,48.8712429
Association de Solidarité avec Tous les Immigrés,Yvelines,Île-de-France,Ouvert,green,2.095285200000035,48.8756369
Centre Communal d'Action Sociale (CCAS) de Maisons-Laffitte,Yvelines,Île-de-France,Fermé,red,2.143902300000036,48.9475422
Association de Solidarité avec tous les Immigrés ASTI Maison-Laffitte,Yvelines,Île-de-France,Fermé,red,2.136611300000027,48.9530714
Centre Communal d'Action Sociale (CCAS) de Marly le Roi,Yvelines,Île-de-France,Fermé,red,2.097184900000002,48.8675317
Bibliothèque Pierre Bourdan,Yvelines,Île-de-France,Fermé,red,2.0949821,48.87583129999999
CBL Réagir Marly le Roi,Yvelines,Île-de-France,Fermé,red,2.095950300000027,48.8673125
Société de Saint-Vincent-de-Paul-Conférence Saint-Thibaut,Yvelines,Île-de-France,Ouvert,green,2.088896599999998,48.87144970000001
CBL Réagir La Celle-Saint-Cloud,Yvelines,Île-de-France,Fermé,red,2.1364714999999705,48.849079
Centre Communal d'Action Sociale (CCAS) du Mesnil le Roi,Yvelines,Île-de-France,Fermé,red,2.122549499999991,48.92792000000001
Centre Communal d'Action Sociale (CCAS) -  Le Port Marly,Yvelines,Île-de-France,Ouvert,green,2.11167039999998,48.8783168
L'Espace de Vie Solidaire,Yvelines,Île-de-France,Ouvert,green,2.110126199999968,48.8795405
Centre Communal d'Action Sociale (CCAS) de Houilles,Yvelines,Île-de-France,Fermé,red,2.186885699999948,48.922902
Centre Communal d'Action Sociale (CCAS) de Sartrouville,Yvelines,Île-de-France,Fermé,red,2.157030500000019,48.94067940000001
La Maison de la famille,Yvelines,Île-de-France,Fermé,red,2.1841504000000214,48.9440194
Centre Communal d'Action Sociale (CCAS) de Carrières-sur-Seine,Yvelines,Île-de-France,Fermé,red,2.176480499999999,48.9061351
Ludothèque,Yvelines,Île-de-France,Modification,orange,2.1735780000000204,48.91510299999999
Centre Communal d'Action Sociale (CCAS) de Chatou,Yvelines,Île-de-France,Fermé,red,2.1506455999999616,48.8964073
Centre Communal d'Action Sociale (CCAS) - Le Vésinet,Yvelines,Île-de-France,Fermé,red,2.133895800000005,48.893449
Centre Communal d'Action Sociale (CCAS) de Montesson,Yvelines,Île-de-France,Fermé,red,2.1496783999999707,48.9081845
Centre Communal d'Action Sociale (CCAS) de Crespières,Yvelines,Île-de-France,Modification,orange,1.9241064000000279,48.8817475
Association Bibliothèque Crespières,Yvelines,Île-de-France,Fermé,red,1.923229499999934,48.8818804
Alphabétisation et Accompagnement Scolaire au Mesnil le Roi,Yvelines,Île-de-France,Fermé,red,2.1218659999999545,48.9395339
Permanence  Juriste,Yvelines,Île-de-France,Fermé,red,1.9210275,48.97690310000001
Ecrivain public - Mairie des Mureaux,Yvelines,Île-de-France,Fermé,red,1.9175741000000244,48.98018829999999
"Ecrivain public, Espace Gérard-Philipe",Yvelines,Île-de-France,Fermé,red,1.9114471999999978,48.9874987
Habitat et Humanisme antenne boucle de seine,Yvelines,Île-de-France,Fermé,red,2.1579659999999876,48.886036
Centre Communal d'Action Sociale (CCAS) - Les Mureaux,Yvelines,Île-de-France,Fermé,red,1.9089414000000033,48.99337309999999
Réussite éducative,Yvelines,Île-de-France,Fermé,red,1.9084391000000096,48.99234260000001
Centre Communal d'Action Sociale (CCAS) de Morainvilliers-Bures,Yvelines,Île-de-France,Fermé,red,1.9352327000000287,48.9284109
Bibliothèque de Bures,Yvelines,Île-de-France,Fermé,red,1.9626504,48.9414261
Bibliothèque de Morainvilliers,Yvelines,Île-de-France,Fermé,red,1.9361209999999573,48.92894880000001
Centre Communal d'Action Sociale (CCAS) de Tessancourt-sur-Aubette,Yvelines,Île-de-France,Fermé,red,1.918581300000028,49.0236536
Centre Communal d'Action Sociale (CCAS) de Vaux-sur-Seine,Yvelines,Île-de-France,Fermé,red,1.963478900000041,49.0062272
Bibliothèque de La Martinière,Yvelines,Île-de-France,Fermé,red,1.9678367999999864,49.0037971
"Centre Médico-Psychologique (CMP) adultes ""Maurice Berteaux""",Yvelines,Île-de-France,Fermé,red,2.1681396,48.94000860000001
Centre Communal d'Action Sociale (CCAS) de Vernouillet,Yvelines,Île-de-France,Fermé,red,1.983432099999959,48.97260730000001
Centre de Protection Maternelle et Infantile (PMI) de Chatou,Yvelines,Île-de-France,Fermé,red,2.155357399999957,48.9021938
Centre de Protection Maternelle et Infantile (PMI) de Mantes-la-Jolie,Yvelines,Île-de-France,Fermé,red,1.709673500000008,48.9893488
Les Restos du Coeur de Maurecourt,Yvelines,Île-de-France,Fermé,red,2.0684308,48.9972527
Mission Locale - Siège,Yvelines,Île-de-France,Fermé,red,2.0075818000000254,48.7701396
Mission locale - site de Guyancourt,Yvelines,Île-de-France,Fermé,red,2.0498924999999417,48.7854724
Mission Locale - Site d’Élancourt,Yvelines,Île-de-France,Fermé,red,1.9537981999999374,48.7680453
Mission Locale - Site de Plaisir,Yvelines,Île-de-France,Fermé,red,1.963145299999951,48.83061329999999
Mission Locale Intercommunale de Poissy-Conflans,Yvelines,Île-de-France,Fermé,red,2.046324499999969,48.93144299999999
Secours populaire Antenne des Mureaux (Chopin),Yvelines,Île-de-France,Fermé,red,1.9211245,48.9762159
Unité locale Croix Rouge Houdan,Yvelines,Île-de-France,Fermé,red,1.5950666999999612,48.7912656
Vestiboutique de Houdan,Yvelines,Île-de-France,Fermé,red,1.6028389000000516,48.7912857
Croix-Rouge Unité locale de la boucle seine sud - Site Vésinet,Yvelines,Île-de-France,Fermé,red,2.1241244999999935,48.8962226
Croix Rouge unité locale de Chevreuse,Yvelines,Île-de-France,Fermé,red,2.0389388,48.7084875
Croix Rouge Unité locale La Celle-Saint-Cloud,Yvelines,Île-de-France,Fermé,red,2.1326607999999396,48.8461982
Unité Locale Croix Rouge de Rambouillet,Yvelines,Île-de-France,Fermé,red,1.8332335999999714,48.640936
Croix Rouge Unité locale Viroflay Vélizy,Yvelines,Île-de-France,Fermé,red,2.17226519999997,48.8026284
Vestiboutique de la Croix Rouge Vélizy-Villacoublay,Yvelines,Île-de-France,Fermé,red,2.185772400000019,48.7843699
Secours Populaire antenne du Perray-en-Yvelines,Yvelines,Île-de-France,Ouvert,green,1.8528272999999444,48.69150949999999
Secours Populaire Antenne de La Verrière,Yvelines,Île-de-France,Ouvert,green,1.9652223,48.75901589999999
Secours Populaire Antenne d'Elancourt,Yvelines,Île-de-France,Ouvert,green,1.9521008,48.7707869
Secours Populaire Antenne de Guyancourt,Yvelines,Île-de-France,Fermé,red,2.0738710000000538,48.7735399
Secours Populaire Antenne de Versailles ,Yvelines,Île-de-France,Modification,orange,2.1531673,48.8074161
Secours populaire comité de Saint-Cyr-l'École,Yvelines,Île-de-France,Ouvert,green,2.0577216000000362,48.801562
Espace Emploi Achères,Yvelines,Île-de-France,Fermé,red,2.066330999999991,48.964983
Centre Hospitalier Intercommunal de Meulan-Les-Mureaux - CeGIDD,Yvelines,Île-de-France,Fermé,red,1.9098008999999365,49.0031988
Groupe d'entraide mutuelle de l'Amitié à Mantes la jolie ,Yvelines,Île-de-France,Fermé,red,1.7171315,48.9853228
"Groupe d'entraide mutuelle Rambouillet ""la Tortue qui Trotte""",Yvelines,Île-de-France,Fermé,red,1.8258719000000383,48.6439221
Groupe d'entraide mutuelle Versailles Yvelines,Yvelines,Île-de-France,Fermé,red,2.119835699999999,48.7951041
Les Restos du Cœur de Houdan,Yvelines,Île-de-France,Fermé,red,1.596026,48.7980712
Les Restos du Cœur de La Verrière,Yvelines,Île-de-France,Fermé,red,1.9663109,48.7582754
Les Restos du Cœur de Saint-Cyr L’école,Yvelines,Île-de-France,Fermé,red,2.0631848000000446,48.806376
Les Restos du Coeur de Bois d'Arcy,Yvelines,Île-de-France,Fermé,red,2.0179487000000336,48.8024991
Les Restos Bébés du Coeur de Poissy,Yvelines,Île-de-France,Fermé,red,2.0494407999999567,48.9321713
Les Restos Bébés du Coeur de Rambouillet,Yvelines,Île-de-France,Fermé,red,1.8260887000000139,48.64522940000001
Médiathèque de Chatou,Yvelines,Île-de-France,Fermé,red,2.152993400000014,48.8977329
Centre Communal d'Action Sociale (CCAS) de Versailles,Yvelines,Île-de-France,Fermé,red,2.1309470999999576,48.8004364
Centre de planification et d’éducation familiale des Clayes-sous-Bois,Yvelines,Île-de-France,Fermé,red,1.9878490999999485,48.8267415
Centre de planification et d’éducation familiale de Houdan,Yvelines,Île-de-France,Fermé,red,1.6027096999999912,48.7898473
Centre de planification et d’éducation familiale de Mantes-la-Jolie,Yvelines,Île-de-France,Fermé,red,1.7103692000000592,48.9897059
"Unité d'Orthogénie : planification familiale de Mantes-la-Jolie ""Hôpital""",Yvelines,Île-de-France,Fermé,red,1.674542200000019,48.9985807
Centre de planification et d’éducation familiale de Meulan-en-Yvelines,Yvelines,Île-de-France,Fermé,red,1.9098008999999365,49.0031988
Centre de planification et d’éducation familiale de Montigny-le-Bretonneux,Yvelines,Île-de-France,Fermé,red,2.0451762000000144,48.7861741
Centre de planification et d’éducation familiale de Rambouillet,Yvelines,Île-de-France,Fermé,red,1.8311547,48.6481591
Centre de planification et d’éducation familiale de Versailles,Yvelines,Île-de-France,Fermé,red,2.131375100000014,48.8009898
Permanence de vaccination - Maison de la Petite Enfance,Yvelines,Île-de-France,Fermé,red,2.028047000000015,48.972764
Permanence de vaccination - Maison médicale de Garde,Yvelines,Île-de-France,Fermé,red,1.9106365000000096,48.9809142
Permanence de vaccination - Centre Médico-Social Chopin,Yvelines,Île-de-France,Fermé,red,1.681611,48.99720199999999
Permanence de vaccination - PMI Pablo Picasso,Yvelines,Île-de-France,Fermé,red,2.188157,48.9438443
Permanence de vaccination - Maison de Quartier la Marinière,Yvelines,Île-de-France,Fermé,red,2.194817999999941,48.944803
Permanence de Vaccination - Point Information Jeunesse,Yvelines,Île-de-France,Fermé,red,1.9854545000000599,48.9766781
Permanence de Vaccination - Pôle Multi-Services Michel Colucci,Yvelines,Île-de-France,Fermé,red,2.0274041000000125,48.9427483
Permanence de vaccination - Maison de la Petite Enfance,Yvelines,Île-de-France,Fermé,red,2.0624302,48.8004173
Centre de Santé Municipal,Yvelines,Île-de-France,Fermé,red,1.9869767000000138,48.7778303
Permanence de vaccination - Institut de promotion de la santé,Yvelines,Île-de-France,Fermé,red,2.0004444999999578,48.776579
Permanence de vaccination - Centre Médico Scolaire,Yvelines,Île-de-France,Fermé,red,2.1358357999999953,48.8034646
Permanence de vaccination - Pôle Santé,Yvelines,Île-de-France,Fermé,red,1.940349900000001,48.76132259999999
Permanence de vaccination - Maison de la Famille « La Mosaïque »,Yvelines,Île-de-France,Fermé,red,1.9526590000000397,48.8200349
Permanence ADIL78 à Houilles,Yvelines,Île-de-France,Fermé,red,2.1870202,48.9225962
ADIL 78 - Centre de Versailles,Yvelines,Île-de-France,Fermé,red,2.1560334000000694,48.8069227
Point Justice (ancien PAD) de Fontenay-le-Fleury,Yvelines,Île-de-France,Fermé,red,2.0457401999999547,48.8108708
Point Justice (ancien PAD) de l'Espace André Joly,Yvelines,Île-de-France,Modification,orange,2.133039800000006,48.84478989999999
Le Service social de la Celle-Saint-Cloud,Yvelines,Île-de-France,Fermé,red,2.133039800000006,48.84478989999999
Espace André Joly,Yvelines,Île-de-France,Fermé,red,2.133039800000006,48.84478989999999
Maison de quartier Jules Verne,Yvelines,Île-de-France,Fermé,red,2.072035000000028,48.9677061
Maison de quartier Jacques Prévert,Yvelines,Île-de-France,Fermé,red,2.062708100000009,48.9579245
CBL Réagir Plaisir à la Maison des familles Camille Claudel,Yvelines,Île-de-France,Ouvert,green,1.9686934,48.8275053
CBL Réagir Plaisir  à la Maison des familles La Mosaïque,Yvelines,Île-de-France,Fermé,red,1.9526590000000397,48.8200349
Permanence ADIL78 à Vélizy-Villacoublay,Yvelines,Île-de-France,Fermé,red,2.1912684999999783,48.7828941
Permanence ADIL78 à Plaisir,Yvelines,Île-de-France,Fermé,red,1.948829,48.827866
Permanence ADIL78  à Montigny-le-Bretonneux,Yvelines,Île-de-France,Fermé,red,2.037024699999961,48.7697613
Permanence ADIL78 à Voisins-le-Bretonneux,Yvelines,Île-de-France,Fermé,red,2.038995800000066,48.7580114
"CMP adultes ""Condorcet""",Yvelines,Île-de-France,Fermé,red,2.1324944000000414,48.9236485
"Centre d'Accueil Thérapeutique Temps Partiel adultes ""Condorcet"" - Montesson",Yvelines,Île-de-France,Fermé,red,2.1324944000000414,48.9236485
Permanence Nouvelles Voies - Mairie de BUC,Yvelines,Île-de-France,Ouvert,green,2.1246661999999787,48.7748112
L'espace Edouard Tarron - Centre Communal d'Action Sociale (CCAS) de Vélizy-Villacoublay,Yvelines,Île-de-France,Modification,orange,2.1899585999999545,48.7828876
Permanence du Centre d'information sur les droits des femmes et des familles (CIDFF) à la Résidence Les Alouettes,Yvelines,Île-de-France,Fermé,red,2.1695098000000144,48.91260639999999
Permanence du Centre d'information sur les droits des femmes et des familles (CIDFF) à la Mairie de Carrières-sur-Seine,Yvelines,Île-de-France,Fermé,red,2.176480500000025,48.9061351
Permanences - Mairie de Croissy-sur-Seine,Yvelines,Île-de-France,Ouvert,green,2.1476370000000315,48.88048899999999
Centre Communal d'Action Sociale (CCAS) de Croissy-sur-Seine,Yvelines,Île-de-France,Fermé,red,2.1476370000000315,48.88048899999999
Permanence du Centre d'information sur les droits des femmes et des familles (CIDFF) à l'Espace Jacques Miquel - La Verrière,Yvelines,Île-de-France,Fermé,red,1.9636329999999589,48.7582639
Centre Communal d'Action Sociale (CCAS) des Clayes-sous-Bois,Yvelines,Île-de-France,Fermé,red,1.986654000000044,48.8213381
"Épicerie Sociale ""La Passerelle""",Yvelines,Île-de-France,Ouvert,green,1.9702356999999893,48.8204718
"Centre social ""Le Sémaphore""",Yvelines,Île-de-France,Ouvert,green,1.9705644000000575,48.82541880000001
Permanences à la Mairie des Clayes-sous-Bois,Yvelines,Île-de-France,Ouvert,green,1.9866001000000324,48.8212096
L'Argos - Mairie Annexe,Yvelines,Île-de-France,Ouvert,green,1.9933866999999736,48.8256099
L'Etincelle - Accueil de jour départemental des Yvelines pour les femmes victimes de violences,Yvelines,Île-de-France,Fermé,red,2.0414637000000084,48.78311739999999
Centre social Les Résédas,Yvelines,Île-de-France,Fermé,red,1.9854545000000599,48.9766781
Le Point information jeunesse (PIJ) de Vernouillet,Yvelines,Île-de-France,Fermé,red,1.9854545000000599,48.9766781
L'espace Verno,Yvelines,Île-de-France,Fermé,red,1.985568599999965,48.9759499
Accueil de loisirs La Grange,Yvelines,Île-de-France,Modification,orange,1.991412500000024,48.9687132
"Maison de la famille et des associations ""Yves Corneau""",Yvelines,Île-de-France,Ouvert,green,2.0033260000000155,48.8276002
Centre Communal d'Action Sociale (CCAS) de Villepreux,Yvelines,Île-de-France,Fermé,red,2.0051855000000387,48.8300712
Point justice / Droit famille,Yvelines,Île-de-France,Ouvert,green,2.131380600000057,48.80336200000001
Secteur d'Action Sociale (SAS) d'Elancourt,Yvelines,Île-de-France,Fermé,red,1.9506596,48.7677226
Maison de l’emploi d'Elancourt,Yvelines,Île-de-France,Ouvert,green,1.9500574999999571,48.7680215
Centre d'information sur les droits des femmes et des familles (CIDFF) - Permanence à la Mairie de La Verrière,Yvelines,Île-de-France,Fermé,red,1.9614309999999477,48.75935799999999
Bureau Accompagnement Individualisé vers l’Emploi du Centre d'information sur les droits des femmes et des familles (CIDFF),Yvelines,Île-de-France,Fermé,red,2.0004444999999578,48.776579
Cap Emploi de Trappes,Yvelines,Île-de-France,Ouvert,green,2.0012229999999818,48.77697509999999
Centre social Les Merisiers,Yvelines,Île-de-France,Fermé,red,1.98551980000002,48.7790542
Permanence service emploi/formation du Centre d'Information sur les Droits des Femmes et des Familles (CIDFF),Yvelines,Île-de-France,Fermé,red,2.0075818,48.7701396
Centre Communal d'Action Sociale (CCAS) d'Aigremont,Yvelines,Île-de-France,Ouvert,green,2.017890399999999,48.90222499999999
CCAS de Boinville-en-Mantois,Yvelines,Île-de-France,Ouvert,green,1.7565173,48.9295787
Centre Communal d'Action Sociale (CCAS) de Chapet,Yvelines,Île-de-France,Fermé,red,1.934067,48.9673163
CCAS de Chaufour-les-Bonnières,Yvelines,Île-de-France,Ouvert,green,1.483431,49.0156455
Centre Communal d'Action Sociale (CCAS) de Favrieux,Yvelines,Île-de-France,Fermé,red,1.6433861,48.9450675
Centre Communal d'Action Sociale (CCAS) de Goussonville,Yvelines,Île-de-France,Fermé,red,1.7650812,48.91974399999999
Centre Communal d'Action Sociale (CCAS) de Limetz Villez,Yvelines,Île-de-France,Fermé,red,1.5457499,49.0607543
Centre Communal d'Action Sociale (CCAS) de Longnes,Yvelines,Île-de-France,Fermé,red,1.5860638,48.9207262
Centre Communal d'Action Sociale (CCAS) de Louveciennes,Yvelines,Île-de-France,Fermé,red,2.1124794,48.8618786
Centre Communal d'Action Sociale (CCAS) de Mantes-la-Jolie,Yvelines,Île-de-France,Fermé,red,1.693126,48.9951344
Centre Communal d'Action Sociale (CCAS) de Nézel,Yvelines,Île-de-France,Fermé,red,1.8360953,48.9447656
Centre Communal d'Action Sociale (CCAS) de Sailly,Yvelines,Île-de-France,Fermé,red,1.802305,49.0388738
Centre Communal d'Action Sociale (CCAS) de Villennes-sur-Seine,Yvelines,Île-de-France,Fermé,red,1.9990816,48.9405105
CMS Espace Médical Joseph-Bellanger,Yvelines,Île-de-France,Fermé,red,2.1053251,48.9992166
Centre de santé polyvalent médical et dentaire,Yvelines,Île-de-France,Fermé,red,2.1861811,48.92711689999999
CAF des Yvelines - Accueil de Versailles Chantiers,Yvelines,Île-de-France,Fermé,red,2.1344086,48.7959889
CAF de Mantes-la-Jolie,Yvelines,Île-de-France,Modification,orange,1.6855001,48.99838190000001
Point d'accueil CAF de Chanteloup-les-Vignes,Yvelines,Île-de-France,Modification,orange,2.0267222,48.9721327
Point d'accueil CAF des Mureaux,Yvelines,Île-de-France,Modification,orange,1.914816499999999,48.9908665
Point d'accueil CAF de Poissy,Yvelines,Île-de-France,Modification,orange,2.0382764,48.92896280000001
Point d'accueil CAF de Rambouillet,Yvelines,Île-de-France,Modification,orange,1.8294292,48.6429256
Point d'accueil CAF de Saint-Germain-en-Laye,Yvelines,Île-de-France,Modification,orange,2.0692171,48.8945043
Point d'accueil CAF de Sartrouville,Yvelines,Île-de-France,Modification,orange,2.1889261,48.94299239999999
Point d'accueil CAF de Trappes,Yvelines,Île-de-France,Modification,orange,1.9841719,48.7796745
Distribution alimentaire de AMD,Yvelines,Île-de-France,Modification,orange,2.14518,48.8120829
Petits déjeuners file d'attente migrants Préfecture,Yvelines,Île-de-France,Fermé,red,2.1306535,48.8027158
Centre Communal d'Action Sociale (CCAS) de Plaisir,Yvelines,Île-de-France,Fermé,red,1.961552,48.8225873
Centre Communal d'Action Sociale (CCAS) de Maurepas,Yvelines,Île-de-France,Fermé,red,1.9403499,48.76132259999999
La Cimade Versailles,Yvelines,Île-de-France,Fermé,red,2.1624078,48.8039134
secours populaire,Yvelines,Île-de-France,Ouvert,green,2.001843999999999,48.77673099999999
CMS de Sartrouville,Yvelines,Île-de-France,Ouvert,green,2.1972585,48.9446429
Centre de santé,Yvelines,Île-de-France,Fermé,red,1.600148,48.7929032
Pôle femmes ados enfants du Centre de santé,Yvelines,Île-de-France,Ouvert,green,1.600148,48.7929032
Centre de Santé de Achères,Yvelines,Île-de-France,Fermé,red,2.0715287,48.96129079999999
Centre de protection maternelle et infantile  d'Elancourt,Yvelines,Île-de-France,Fermé,red,1.9508706,48.7678877
Secteur d'Action Sociale (SAS) de Saint-Germain-en-Laye,Yvelines,Île-de-France,Fermé,red,2.086026,48.8978584
Secteur d'Action Sociale (SAS) de Trappes,Yvelines,Île-de-France,Fermé,red,1.9841719,48.7796745
Secteur d'Action Sociale (SAS) de Versailles,Yvelines,Île-de-France,Fermé,red,2.141087,48.81132890000001
Secteur d'Action Sociale (SAS) de Rambouillet,Yvelines,Île-de-France,Fermé,red,1.8267879,48.6499923
Permanence d'accès aux soins de santé (PASS) du Centre Hospitalier Intercommunal de Poissy St. Germain,Yvelines,Île-de-France,Fermé,red,2.0217618,48.9188675
Permanence d'accès aux soins de santé (PASS) du centre Hospitalier de Rambouillet,Yvelines,Île-de-France,Fermé,red,1.826727899999999,48.652471
Institut de Promotion de la Santé,Yvelines,Île-de-France,Modification,orange,2.0004445,48.776579
"Espace Bébé Parents, Croix Rouge Guyancourt",Yvelines,Île-de-France,Fermé,red,2.0512466,48.7752208
Espoir de Femmes,Yvelines,Île-de-France,Ouvert,green,1.912178,48.990181
Espace Bébé Parents Les Mureaux - Croix-Rouge Française,Yvelines,Île-de-France,Ouvert,green,1.9097594,48.9926564
Épicerie sociale - Croix Rouge Unité locale de Saint-Germain-en-Laye,Yvelines,Île-de-France,Fermé,red,2.1064108,48.8984617
Cellule d'écoute psychologique,Yvelines,Île-de-France,Ouvert,green,1.8256572,48.7850939
Centre Communal d'Action Sociale (CCAS) de Gambais,Yvelines,Île-de-France,Fermé,red,1.6744214,48.7732199
Centre Communal d'Action Sociale (CCAS) de Beynes,Yvelines,Île-de-France,Fermé,red,1.8739709,48.8556284
Centre Communal d'Action Sociale (CCAS) de Chavenay,Yvelines,Île-de-France,Fermé,red,1.9868721,48.8540994
Centre Communal d'Action Sociale (CCAS) de Saint-Nom-la-Bretêche,Yvelines,Île-de-France,Fermé,red,2.0213463,48.8597324
La Maison de l’accueil et de l’action sociale - Centre Communal d'Action Sociale (CCAS) de Rambouillet,Yvelines,Île-de-France,Fermé,red,1.8404411,48.6518398
Centre Communal d'Action Sociale (CCAS) de Sonchamp,Yvelines,Île-de-France,Ouvert,green,1.876733,48.57636199999999
Centre Communal d'Action Sociale (CCAS) de Saint Léger en Yvelines,Yvelines,Île-de-France,Fermé,red,1.76561,48.7210666
Centre Communal d'Action Sociale (CCAS) de Noisy-le-Roi,Yvelines,Île-de-France,Fermé,red,2.0646537,48.8438874
Centre Communal d'Action Sociale (CCAS) de Buc,Yvelines,Île-de-France,Fermé,red,2.124666200000001,48.7748112
Centre Communal d'Action Sociale (CCAS) de Fontenay-le-Fleury,Yvelines,Île-de-France,Fermé,red,2.0456106,48.810945
Centre Communal d'Action Sociale (CCAS) des Loges-en-Josas,Yvelines,Île-de-France,Fermé,red,2.1405114,48.7644241
Centre Communal d'Action Sociale (CCAS) de Viroflay,Yvelines,Île-de-France,Fermé,red,2.1733113,48.7996367
Centre Communal d'Action Sociale (CCAS) d'Elancourt,Yvelines,Île-de-France,Fermé,red,1.9493799,48.76826859999999
Centre Communal d'action sociale (CCAS) de La Verrière,Yvelines,Île-de-France,Fermé,red,1.961431,48.75935799999999
Centre Communal d'Action Sociale (CCAS) de Guyancourt,Yvelines,Île-de-France,Fermé,red,2.0705308,48.77112820000001
Centre Communal d'Action Sociale (CCAS) de Magny-les-Hameaux,Yvelines,Île-de-France,Fermé,red,2.083532,48.7246508
Centre Communal d'Action Sociale (CCAS) de Montigny-le-Bretonneux,Yvelines,Île-de-France,Modification,orange,2.0370247,48.7697613
Centre Communal d'Action Sociale (CCAS) de Voisins-le-Bretonneux,Yvelines,Île-de-France,Fermé,red,2.0513354,48.7587297
Centre Communal d'Action Sociale (CCAS) de Trappes,Yvelines,Île-de-France,Fermé,red,1.999386999999999,48.775867
RPEAE,Yvelines,Île-de-France,Fermé,red,2.0267222,48.9721327
Centre Communal d'Action Sociale (CCAS) de Neauphle-le-Chateau,Yvelines,Île-de-France,Fermé,red,1.8987914,48.8136537
Permanence d'accès aux soins de santé (PASS) de L’Hôpital André Mignot,Yvelines,Île-de-France,Fermé,red,2.126059999999999,48.8312119
Mission Locale Intercommunale de Versailles (Siège),Yvelines,Île-de-France,Fermé,red,2.1516332,48.7919353
Mission locale - MLIV antenne La Celle Saint Cloud,Yvelines,Île-de-France,Fermé,red,2.1258605,48.84010310000001
Secours Catholique Montigny-le-Bretonneux,Yvelines,Île-de-France,Ouvert,green,2.038998299999999,48.76677960000001
Balisqy,Yvelines,Île-de-France,Fermé,red,2.0397564,48.769053
Cellule d'écoute psychologique,Yvelines,Île-de-France,Ouvert,green,2.126059999999999,48.8312119
Cellule d'écoute psychologique,Yvelines,Île-de-France,Ouvert,green,1.949074999999999,48.817223
Centre Communal d'Action Sociale (CCAS) du Perray,Yvelines,Île-de-France,Fermé,red,1.8549108,48.69411480000001
Centre Communal d'Action Sociale (CCAS) du Prunay en Yvelines,Yvelines,Île-de-France,Fermé,red,1.7943677,48.5278174
Centre Communal d'Action Sociale (CCAS) de Saint-Rémy-lès-Chevreuse,Yvelines,Île-de-France,Fermé,red,2.0713941,48.7058887
Centre IPC site de Trappes - Bilan de santé,Yvelines,Île-de-France,Fermé,red,2.0004445,48.776579
Centre IPC site de Mantes - Bilan de santé,Yvelines,Île-de-France,Fermé,red,1.677622,48.99997
CLAT 78,Yvelines,Île-de-France,Ouvert,green,2.0004445,48.776579
Médecins Bénévoles,Yvelines,Île-de-France,Ouvert,green,2.0004445,48.776579
Espace Solidarité,Yvelines,Île-de-France,Fermé,red,1.988545099999999,48.7768682
Permanence Médecins Bénévoles au Foyer ADEF,Yvelines,Île-de-France,Ouvert,green,1.9349318,48.7593875
"Centre de Soin, d'Accompagnement et de Prévention en Addictologie (CSAPA) - antenne de Trappes",Yvelines,Île-de-France,Fermé,red,2.0004445,48.776579
Mouvement vie libre 78,Yvelines,Île-de-France,Fermé,red,2.0004445,48.776579
France Alzheimer Yvelines antenne de Saint-Quentin-en-Yvelines,Yvelines,Île-de-France,Fermé,red,2.0004445,48.776579
La maison des adolescents Sud Yvelines (MDA78),Yvelines,Île-de-France,Ouvert,green,2.0004445,48.776579
Permanence Bien-être en Yvelines,Yvelines,Île-de-France,Fermé,red,2.0004445,48.776579
Permanence CEGIDD,Yvelines,Île-de-France,Ouvert,green,2.0004445,48.776579
Centre Communal d'Action Sociale (CCAS) de Bois d'Arcy,Yvelines,Île-de-France,Fermé,red,2.0268779,48.8014741
Centre Communal d'Action Sociale (CCAS) de Jouy-en-Josas,Yvelines,Île-de-France,Fermé,red,2.167836,48.76433089999999
Centre Communal d'Action Sociale (CCAS) de Saint-Cyr-L'Ecole,Yvelines,Île-de-France,Modification,orange,2.0616322,48.8019952
Association Mantes Solidarité,Yvelines,Île-de-France,Fermé,red,1.6841793,49.00283429999999
Au Cœur de la Fraternité 78,Yvelines,Île-de-France,Fermé,red,1.7156308,48.9829782
Soli'Malte,Yvelines,Île-de-France,Fermé,red,2.130122,48.801408
centre ambulatoire Covid-19,Yvelines,Île-de-France,Ouvert,green,1.6773469,48.9979986
Lunchs box,Yvelines,Île-de-France,Ouvert,green,1.9643191,48.7579352
Vestiboutique - Croix Rouge Unité locale de Saint-Germain-en-Laye,Yvelines,Île-de-France,Fermé,red,2.1064108,48.8984617
Ecrivain public - Croix Rouge Unité locale de Saint-Germain-en-Laye,Yvelines,Île-de-France,Fermé,red,2.0971849,48.8675317
Bibliothèque André Malraux,Yvelines,Île-de-France,Fermé,red,2.0284287,48.9210163
Maison de quartier Clos d'Arcy,Yvelines,Île-de-France,Ouvert,green,2.0565232,48.93105120000001
Bureau Information Jeunesse (BIJ) de Poissy - La source ,Yvelines,Île-de-France,Fermé,red,2.042561199999999,48.9312396
Permanence de vaccination - Centre de Santé Municipal,Yvelines,Île-de-France,Fermé,red,2.1053251,48.9992166
Vestiboutique - Croix Rouge Unité locale de Saint-Quentin-en-Yvelines,Yvelines,Île-de-France,Fermé,red,2.046605,48.7864744
Groupe de parole Rambouillet,Yvelines,Île-de-France,Fermé,red,1.8253919,48.6480682
Groupe de parole Les Clayes-sous-Bois,Yvelines,Île-de-France,Fermé,red,1.970564400000001,48.82541880000001
Groupe de parole Elancourt,Yvelines,Île-de-France,Fermé,red,1.9489752,48.7675308
ACR (Agir Combattre  Réunir),Yvelines,Île-de-France,Ouvert,green,2.1117509,49.0025109
Age et partage,Yvelines,Île-de-France,Fermé,red,1.809521,48.781605
APME Médiation,Yvelines,Île-de-France,Fermé,red,2.1397232,48.79512250000001
Le bureau de l'emploi Houdannais,Yvelines,Île-de-France,Fermé,red,1.603032,48.78836629999999
Permanence du bureau de « Emploi » à la Mairie d'Orgerus,Yvelines,Île-de-France,Fermé,red,1.7015947,48.8390928
Permanence Mission Locale à la Maison des services publics,Yvelines,Île-de-France,Ouvert,green,1.603032,48.78836629999999
Mission locale Intercommunale de Rambouillet,Yvelines,Île-de-France,Fermé,red,1.8404411,48.6518398
Permanence Mission locale à Ablis,Yvelines,Île-de-France,Ouvert,green,1.834473,48.51731100000001
Permanence Mission locale au CCAS de Saint-Arnoult-en-Yvelines,Yvelines,Île-de-France,Ouvert,green,1.9422198,48.571899
Permanence Mission locale à la Mairie de Chevreuse,Yvelines,Île-de-France,Fermé,red,2.043782199999999,48.70748740000001
Permanence Mission locale à l'Espace territorial de Montfort l'Amaury,Yvelines,Île-de-France,Ouvert,green,1.8103156,48.7769618
Permanence Mission locale à la Noria - Espace Jean Racine,Yvelines,Île-de-France,Ouvert,green,2.0786156,48.70357629999999
Territoire d’action départementale – Grand Versailles,Yvelines,Île-de-France,Ouvert,green,2.1341305,48.8028156
Secteur d'Action Sociale (SAS) de la Celle-Saint-Cloud,Yvelines,Île-de-France,Fermé,red,2.1350965,48.84703
Territoire d’action départementale – Saint-Quentin,Yvelines,Île-de-France,Ouvert,green,2.0488758,48.7915649
Territoire d’action départementale – Terres d’Yvelines,Yvelines,Île-de-France,Ouvert,green,1.8267629,48.6499762
France Victimes 78 - SOS Victimes 78,Yvelines,Île-de-France,Fermé,red,2.1349864,48.7976851
Bureau d'aide aux victimes,Yvelines,Île-de-France,Fermé,red,2.1313889,48.80333330000001
Secteur d'Action Sociale (SAS) de Montfort-l'Amaury,Yvelines,Île-de-France,Fermé,red,1.8103156,48.7769618
Pôle de proximité Houdan,Yvelines,Île-de-France,Fermé,red,1.6027097,48.7898473
Permanence France Victimes 78 Commissariat de Rambouillet,Yvelines,Île-de-France,Fermé,red,1.824627,48.6486027
Secteur d'Action Sociale (SAS) de Guyancourt,Yvelines,Île-de-France,Fermé,red,2.073871,48.7735399
Secteur d'Action Sociale (SAS) de Plaisir,Yvelines,Île-de-France,Fermé,red,1.961552,48.8225873
"Centre de Soin, d'Accompagnement et de Prévention en Addictologie (CSAPA) - antenne de Versailles",Yvelines,Île-de-France,Ouvert,green,2.134150599999999,48.81057479999999
"Centre de Soin, d'Accompagnement et de Prévention en Addictologie (CSAPA) - antenne de Rambouillet",Yvelines,Île-de-France,Fermé,red,1.826727899999999,48.652471
Gally et Mauldre Emploi (GeM) - Maule,Yvelines,Île-de-France,Fermé,red,1.8491888,48.9091045
Comité Local pour le Logement Autonome des Jeunes (CLLAJ) de Saint-Quentin-en-Yvelines et des communes Avoisinantes,Yvelines,Île-de-France,Fermé,red,2.0097451,48.7787671
CLLAJ de Val de Seine,Yvelines,Île-de-France,Fermé,red,1.9134507,48.9839575
CLLAJ de Versailles et ses environs,Yvelines,Île-de-France,Fermé,red,2.119892,48.7951571
Secours catholique Montfort l’Amaury,Yvelines,Île-de-France,Fermé,red,1.794414,48.80395499999999
Val services,Yvelines,Île-de-France,Fermé,red,1.6834115,48.99521749999999
"Centre Médico Psychologique Adultes "" La Pommeraie""",Yvelines,Île-de-France,Fermé,red,1.945396799999999,48.8256114
CMPP « Les Clayes-sous-Bois »,Yvelines,Île-de-France,Fermé,red,1.9869786,48.82568969999999
CMPP « Les Clayes-sous-bois - Beynes (Antenne) »,Yvelines,Île-de-France,Fermé,red,1.9020975,48.8542646
CMPP Marly-le-Roi,Yvelines,Île-de-France,Fermé,red,2.0877267,48.8756338
CMPP « Saint-Germain-en-Laye »,Yvelines,Île-de-France,Fermé,red,2.0729709,48.89290029999999
CMPP « Trappes »,Yvelines,Île-de-France,Fermé,red,1.9895228,48.7800725
CMPP « Versailles »,Yvelines,Île-de-France,Fermé,red,2.119892,48.7951571
Centre Médico-Psycho-Pédagogique « Viroflay » (CMPP),Yvelines,Île-de-France,Fermé,red,2.1723951,48.8025971
GROUPE URGENCE E.R.I.C.,Yvelines,Île-de-France,Ouvert,green,1.9457657,48.8234641
Plaisir solidarité,Yvelines,Île-de-France,Ouvert,green,1.9401165,48.81991350000001
Pôle Emploi - Versailles,Yvelines,Île-de-France,Fermé,red,2.1375534,48.79779129999999
Pôle Emploi - Conflans-Sainte-Honorine,Yvelines,Île-de-France,Fermé,red,2.1055475,48.9992555
Pôle Emploi - Mantes-la-Jolie,Yvelines,Île-de-France,Fermé,red,1.7160421,48.983902
Pôle Emploi - Rambouillet,Yvelines,Île-de-France,Fermé,red,1.8396705,48.6519304
Pôle Emploi - Trappes,Yvelines,Île-de-France,Fermé,red,2.0091753,48.76947190000001
Pôle Emploi - Guyancourt,Yvelines,Île-de-France,Fermé,red,2.054579,48.7855314
Pôle Emploi - Plaisir,Yvelines,Île-de-France,Fermé,red,1.963145299999999,48.83061329999999
Pôle Emploi - Saint-Germain-en-Laye,Yvelines,Île-de-France,Fermé,red,2.0654764,48.9005651
Pôle Emploi - Les Mureaux,Yvelines,Île-de-France,Ouvert,green,1.910806500000001,48.98266419999999
Pôle Emploi - Poissy,Yvelines,Île-de-France,Fermé,red,2.0423915,48.93305350000001
Pôle Emploi - Sartrouville,Yvelines,Île-de-France,Fermé,red,2.1601768,48.9371952
Secteur d'Action Sociale (SAS) de Chatou,Yvelines,Île-de-France,Fermé,red,2.1553574,48.9021938
Bibliothèque des Brouets-Meuniers,Yvelines,Île-de-France,Fermé,red,1.6918312,48.98229870000001
EMPP Yvelines nord,Yvelines,Île-de-France,Ouvert,green,2.1324944,48.9236485
Hôpital de jour infanto-juvénile Saint-Germain-en-Laye,Yvelines,Île-de-France,Fermé,red,2.084649,48.8982479
CATTP infanto-juvénile Conflans,Yvelines,Île-de-France,Fermé,red,2.1053251,48.9992166
CATDB adultes Saint-Germain-en-Laye,Yvelines,Île-de-France,Ouvert,green,2.084649,48.8982479
Mission Locale antenne de Maisons-Laffitte à l'Espace jeunesse,Yvelines,Île-de-France,Ouvert,green,2.1447097,48.9470657
Mission Locale antenne de Houilles,Yvelines,Île-de-France,Fermé,red,2.1886062,48.9196503
DIRE,Yvelines,Île-de-France,Fermé,red,2.0471309,48.7860019
Médecins de Rue,Yvelines,Île-de-France,Fermé,red,2.134885300000001,48.80485040000001
Pôle autonomie territorial (PAT) - Grand Versailles,Yvelines,Île-de-France,Fermé,red,2.1197524,48.8285875
Pôle autonomie territorial (PAT) - Centre Yvelines,Yvelines,Île-de-France,Fermé,red,1.8165468,48.80405359999999
Pôle autonomie territorial (PAT) - Seine Aval Antenne Est,Yvelines,Île-de-France,Fermé,red,1.9806941,48.97851259999999
Pôle autonomie territorial (PAT) - Seine Aval Antenne Ouest,Yvelines,Île-de-France,Fermé,red,1.7121498,48.98781530000001
Pôle autonomie territorial (PAT) – Boucles de Seine Antenne Est,Yvelines,Île-de-France,Fermé,red,2.1875135,48.9203606
Pôle autonomie territorial (PAT)– Boucles de Seine Antenne Ouest,Yvelines,Île-de-France,Fermé,red,2.086026,48.8978584
Pôle autonomie territorial (PAT) – Saint Quentin,Yvelines,Île-de-France,Fermé,red,1.990923199999999,48.76651699999999
Pôle autonomie territorial (PAT) – Sud Yvelines,Yvelines,Île-de-France,Fermé,red,1.8267629,48.6499762
Atelier numérique à la Maison des Projets,Yvelines,Île-de-France,Ouvert,green,2.0717979,48.894416
CEGIDD de l'Hôpital André Mignot,Yvelines,Île-de-France,Fermé,red,2.128562000000001,48.83311399999999
CEGIDD Saint-Quentin-en-Yvelines - antenne de Trappes,Yvelines,Île-de-France,Ouvert,green,2.0004445,48.776579
Section de la Ligue des Droits de l'Homme (LDH) - Rambouillet,Yvelines,Île-de-France,Fermé,red,1.8254905,48.6479873
Permanence d'aide juridique,Yvelines,Île-de-France,Ouvert,green,2.1624078,48.8039134
"Le 5, Espace info Jeunes",Yvelines,Île-de-France,Modification,orange,2.0986131,48.9983833
Permanence d'orientation sanitaire et sociale (POSS),Yvelines,Île-de-France,Ouvert,green,2.1417889,48.80863069999999
Boutique sociale Stuart Mill,Yvelines,Île-de-France,Fermé,red,2.1235667,48.800135
"Centre Gratuit d'Information, de Dépistage et de Diagnostic (CEGIDD) de Rambouillet",Yvelines,Île-de-France,Fermé,red,1.826727899999999,48.652471
CEGIDD du Centre Hospitalier François QUESNAY,Yvelines,Île-de-France,Ouvert,green,1.677055,48.998971
Emmaüs Communauté Trappes,Yvelines,Île-de-France,Ouvert,green,2.0097312,48.7699761
Friperie solidaire Ding Fring Poissy,Yvelines,Île-de-France,Fermé,red,2.042993,48.928575
Friperie Solidaire Ding Fring Mantes-la-Jolie,Yvelines,Île-de-France,Fermé,red,1.7175285,48.9874544
Friperie Solidaire  Ding Fring - Sartrouville,Yvelines,Île-de-France,Fermé,red,2.1878798,48.9431732
Friperie Solidaire  Ding Fring - Epône,Yvelines,Île-de-France,Fermé,red,1.8302873,48.9566192
EBS Le Relais Val de Seine,Yvelines,Île-de-France,Fermé,red,2.031044699999999,48.9679838
Boutique Ding Fring - Chanteloup-les-Vignes,Yvelines,Île-de-France,Fermé,red,2.0332227,48.9755426
Centre Communal d'Action Sociale (CCAS) de Chateaufort,Yvelines,Île-de-France,Fermé,red,2.0919914,48.73715319999999
Centre Communal d'Action Sociale (CCAS) Le Chesnay-Rocquencourt,Yvelines,Île-de-France,Fermé,red,2.1179457,48.8358892
Centre Communal d'Action Sociale (CCAS) - La Celle Saint-Cloud,Yvelines,Île-de-France,Fermé,red,2.1328697,48.84489490000001
"Unité d'hospitalisation, secteur VI",Yvelines,Île-de-France,Ouvert,green,2.085858299999999,48.8979887
"Unité d’hospitalisation, secteur V",Yvelines,Île-de-France,Fermé,red,2.0219057,48.9189154
"Unité d'hospitalisation, secteur IV",Yvelines,Île-de-France,Fermé,red,2.0219057,48.9189154
CMPE - Maurepas,Yvelines,Île-de-France,Ouvert,green,1.943128999999999,48.7618593
CMPA - Maurepas,Yvelines,Île-de-France,Ouvert,green,1.943128999999999,48.7618593
PPAJA de l'Institut Marcel Rivière,Yvelines,Île-de-France,Ouvert,green,1.9484418,48.7503973
Médiathèque la Mosaïque,Yvelines,Île-de-France,Fermé,red,1.9526275,48.8199523
Médiathèque le Château,Yvelines,Île-de-France,Fermé,red,1.9543981,48.8165127
Médiathèque Jacques Prévert,Yvelines,Île-de-France,Fermé,red,1.9871508,48.8188048
Médiathèque Nautilus,Yvelines,Île-de-France,Fermé,red,2.0010643,48.8266737
Médiathèque Le Phare,Yvelines,Île-de-France,Fermé,red,1.9346834,48.7646604
Médiathèque Jaques Brel,Yvelines,Île-de-France,Fermé,red,2.0942714,48.72301119999999
Médiathèque Aimé Césaire,Yvelines,Île-de-France,Fermé,red,1.9553381,48.75468790000001
Médiathèque des 7 Mares,Yvelines,Île-de-France,Fermé,red,1.948435,48.766833
Médiathèque Jean Rousselot,Yvelines,Île-de-France,Fermé,red,2.0773206,48.7678453
Médiathèque  Antoine de Saint-Exupéry,Yvelines,Île-de-France,Fermé,red,2.0496793,48.7586805
Bibliothèque Pour Tous,Yvelines,Île-de-France,Fermé,red,1.9188624,48.7500398
Bibliobus,Yvelines,Île-de-France,Ouvert,green,2.076545299999999,48.7681459
Section de la Ligue des Droits de l'Homme (LDH) - Poissy,Yvelines,Île-de-France,Fermé,red,2.0284287,48.9210163
Section de la Ligue des Droits de l'Homme (LDH) - Verneuil sur Seine,Yvelines,Île-de-France,Fermé,red,1.9754422,48.9790889
Section de la Ligue des Droits de l'Homme (LDH) - Conflans-Sainte-Honorine,Yvelines,Île-de-France,Fermé,red,2.0766966,48.99367770000001
Ligue des Droits de l'Homme (LDH) – Fédération départementale,Yvelines,Île-de-France,Fermé,red,1.9976423,48.7799098
Association Alternative,Yvelines,Île-de-France,Ouvert,green,2.044416,48.9278859
Association AJC,Yvelines,Île-de-France,Ouvert,green,1.9454,48.7621323
Les Bons Taxis,Yvelines,Île-de-France,Fermé,red,1.8951104,48.85142109999999
Centre d'information de conseil et d'accueil des salariés - Versailles,Yvelines,Île-de-France,Ouvert,green,2.1458754,48.7915183
"Le Figuier - Secours Catholique Elancourt, Maurepas, Coignières, St Rémy ",Yvelines,Île-de-France,Fermé,red,1.9460442,48.7760317
Point information jeunesse - Andrésy Jeunesse,Yvelines,Île-de-France,Ouvert,green,2.0578413,48.9896767
Point information jeunesse - Bois d'Arcy ,Yvelines,Île-de-France,Ouvert,green,2.0232813,48.79913930000001
Bureau information jeunesse - Chanteloup les vignes,Yvelines,Île-de-France,Ouvert,green,2.0296331,48.9726554
Point information jeunesse (PIJ) - Chatou,Yvelines,Île-de-France,Fermé,red,2.1529934,48.8977329
Bureau information jeunesse (BIJ) - Elancourt,Yvelines,Île-de-France,Fermé,red,1.9484638,48.7683911
Point information jeunesse - Epône,Yvelines,Île-de-France,Ouvert,green,1.812586,48.953516
Point information jeunesse et bibliothèque (PIJ) - Fontenay-le-Fleury,Yvelines,Île-de-France,Fermé,red,2.044593,48.8108928
Point information jeunesse (PIJ) - Gargenville,Yvelines,Île-de-France,Fermé,red,1.810132,48.991392
Le Phare Jeunesse - Bureau information jeunesse (BIJ) - Guyancourt ,Yvelines,Île-de-France,Fermé,red,2.0772318,48.7675685
Houilles Information Jeunesse ,Yvelines,Île-de-France,Ouvert,green,2.188390899999999,48.9196193
Info Jeunes - Point information jeunesse (PIJ) - Jouy-en-Josas ,Yvelines,Île-de-France,Fermé,red,2.1647058,48.7658232
Point information jeunesse (Cap Ados) - Les-Clayes-sous-Bois,Yvelines,Île-de-France,Ouvert,green,1.9885128,48.8211048
Bureau information jeunesse BIJ (Mantes info jeune) - Mantes-la-Jolie ,Yvelines,Île-de-France,Fermé,red,1.693126,48.9951344
Services information jeunesse - Marly-le-Roi,Yvelines,Île-de-France,Fermé,red,2.0998471,48.8707761
Bureau information jeunesse (BIJ) - Montigny-le-Bretonneux,Yvelines,Île-de-France,Modification,orange,2.045384400000001,48.7813216
Bureau information jeunesse (Maison des jeunes) - Rambouillet,Yvelines,Île-de-France,Ouvert,green,1.8265947,48.646171
"Bureau Information Jeunesse BIJ (Sartrouville information jeunesse, SIJ) - Sartrouville ",Yvelines,Île-de-France,Modification,orange,2.1584567,48.9381656
Bureau information jeunesse (BIJ) - Trappes ,Yvelines,Île-de-France,Ouvert,green,2.0061065,48.7757933
Bureau information jeunesse (BIJ) - Vélizy,Yvelines,Île-de-France,Fermé,red,2.1789632,48.786939
Espace jeune - Verneuil-sur-Seine,Yvelines,Île-de-France,Ouvert,green,1.9648203,48.9801052
 Secours Catholique - ROUTE 113 - Aubergenville-Ecquevilly-Epône,Yvelines,Île-de-France,Ouvert,green,1.861536,48.952215
Secours Catholique - Porcheville-EPM,Yvelines,Île-de-France,Ouvert,green,1.7682303,48.98772899999999
Secours catholique - Hôtel Pariswest -  Elancourt-Maurepas-Coignères-St Rémy,Yvelines,Île-de-France,Ouvert,green,1.9231254,48.75048119999999
DEFI Services +,Yvelines,Île-de-France,Fermé,red,2.0332227,48.9755426
Plaisir Vestiaire - antenne Camille Claudel,Yvelines,Île-de-France,Ouvert,green,1.967337,48.824669
Permanence du bus Protection Maternelle et Infantile (PMI) - Saint-Arnoult-en-Yvelines,Yvelines,Île-de-France,Fermé,red,1.946065,48.5756938
Permanence du bus Protection Maternelle et Infantile (PMI) - Ablis,Yvelines,Île-de-France,Fermé,red,1.8333396,48.51796450000001
Pôle de Proximité de Bonnières-sur-Seine,Yvelines,Île-de-France,Fermé,red,1.5871548,49.0361328
C.H.U. La Mandragore,Yvelines,Île-de-France,Fermé,red,1.7128304,48.9743268
Relais Saint Louis,Yvelines,Île-de-France,Ouvert,green,2.1581968,48.9025445
Epicerie solidaire,Yvelines,Île-de-France,Fermé,red,2.1866683,48.7842377
Association AS-SUFFA,Yvelines,Île-de-France,Fermé,red,1.7076015,48.9765338
Vestiboutique de la Croix Rouge unité locale de Chevreuse,Yvelines,Île-de-France,Ouvert,green,2.0705042,48.7032465
Logements Passerelle La Mandragore,Yvelines,Île-de-France,Fermé,red,1.7128304,48.9743268
Dispositif AVDL La Mandragore (Accompagnement Vers et Dans Le Logement),Yvelines,Île-de-France,Fermé,red,1.7140803,48.99007579999999
Dispositif SOLIBAIL La Mandragore,Yvelines,Île-de-France,Fermé,red,2.1092564,49.0011749
Secteur d’Action Sociale de Sartrouville – Pôle de proximité,Yvelines,Île-de-France,Fermé,red,2.2009038,48.9473555
Le lien,Yvelines,Île-de-France,Ouvert,green,2.151022,48.7906734
Horizon 78 - Le Chesnay,Yvelines,Île-de-France,Fermé,red,2.1269738,48.8202181
Centre Médico-Psycho-Pédagogique (CMPP) de Voisins le Bretonneux,Yvelines,Île-de-France,Fermé,red,2.0543693,48.7669992
Centre Médico-Psycho-Pédagogique (CMPP) de Houdan,Yvelines,Île-de-France,Fermé,red,1.5783335,48.7891379
Centre d'Hebergement et d'accueil temporaire (CHAT),Yvelines,Île-de-France,Fermé,red,2.0419335,48.9507996
Médianes Logement Jeunes (CHRS),Yvelines,Île-de-France,Fermé,red,2.0543693,48.7669992
Service Accueillir,Yvelines,Île-de-France,Fermé,red,2.0543693,48.7669992
Centre Communal d'Action Sociale (CCAS) de Bailly,Yvelines,Île-de-France,Fermé,red,2.0793698,48.83909269999999
CHRS Nouvelle Etoile,Yvelines,Île-de-France,Fermé,red,2.0691255,48.7010096
Permanence France Victimes 78 Point d'Accès au Droit Sartrouville,Yvelines,Île-de-France,Fermé,red,2.1976185,48.9419644
Permanence France Victimes 78 Commissariat de Versailles,Yvelines,Île-de-France,Fermé,red,2.1341378,48.80156230000001
Centre social du Pont du Routoir,Yvelines,Île-de-France,Fermé,red,2.0770201,48.7723266
APME MEDIATION,Yvelines,Île-de-France,Ouvert,green,2.1055475,48.9992555
APME MEDIATION,Yvelines,Île-de-France,Fermé,red,1.9513408,48.76769969999999
APME MEDIATION,Yvelines,Île-de-France,Fermé,red,2.0695342,48.77089079999999
APME MEDIATION,Yvelines,Île-de-France,Fermé,red,1.5994095,48.7920206
APME MEDIATION,Yvelines,Île-de-France,Fermé,red,2.1328697,48.8448949
APME MEDIATION,Yvelines,Île-de-France,Fermé,red,1.970564400000001,48.82541880000001
APME MEDIATION,Yvelines,Île-de-France,Fermé,red,1.9175741,48.98018829999999
APME MEDIATION,Yvelines,Île-de-France,Fermé,red,1.911586499999999,48.9925187
APME MEDIATION,Yvelines,Île-de-France,Fermé,red,1.9084391,48.99234260000001
APME MEDIATION,Yvelines,Île-de-France,Fermé,red,1.694916,49.004566
APME MEDIATION,Yvelines,Île-de-France,Fermé,red,1.70734,48.9765788
APME MEDIATION,Yvelines,Île-de-France,Fermé,red,1.810745,48.77687400000001
APME MEDIATION,Yvelines,Île-de-France,Fermé,red,1.9614924,48.8227151
APME MEDIATION,Yvelines,Île-de-France,Fermé,red,1.948829,48.827866
APME MEDIATION,Yvelines,Île-de-France,Fermé,red,1.8265947,48.646171
APME MEDIATION,Yvelines,Île-de-France,Fermé,red,2.086116,48.8978162
APME MEDIATION,Yvelines,Île-de-France,Fermé,red,2.090403,48.8951483
APME MEDIATION,Yvelines,Île-de-France,Fermé,red,2.1756439,48.9348211
APME MEDIATION,Yvelines,Île-de-France,Fermé,red,2.1841377,48.94398460000001
APME MEDIATION,Yvelines,Île-de-France,Fermé,red,1.992069799999999,48.77944459999999
 Centre social Albert Schweitzer,Yvelines,Île-de-France,Fermé,red,2.1021928,48.7186119
Centre socioculturel - Espaces Jacques Miquel et Rosa Parks,Yvelines,Île-de-France,Fermé,red,1.963633,48.7582639
Ressources&Vous - Boutique Solidaire du Perray-en-Yvelines,Yvelines,Île-de-France,Fermé,red,1.8555835,48.6947912
Ressources&Vous - Boutique solidaire de Saint-Arnoult-en-Yvelines,Yvelines,Île-de-France,Fermé,red,1.9414187,48.5736621
Ressources&Vous - boutique solidaire et friperie de Rambouillet,Yvelines,Île-de-France,Fermé,red,1.8277883,48.6223606
Point Justice - Mantes-la-Ville,Yvelines,Île-de-France,Fermé,red,1.7033383,48.97644729999999
Point Justice de Maurepas,Yvelines,Île-de-France,Ouvert,green,1.943138399999999,48.768074
Point Justice de Versailles (CCAS),Yvelines,Île-de-France,Fermé,red,2.1309066,48.8003715
APME MEDIATION,Yvelines,Île-de-France,Fermé,red,2.0563003,48.8056931
APME MEDIATION,Yvelines,Île-de-France,Fermé,red,2.046222,48.810638
APME MEDIATION,Yvelines,Île-de-France,Fermé,red,2.0000972,48.7768235
Maison des Adolescents - Yvelines Nord,Yvelines,Île-de-France,Fermé,red,2.0599755,48.9406385
Fondation Agir Contre l'Exclusion - FACE,Yvelines,Île-de-France,Fermé,red,2.0075818,48.7701396
Vesti'Aide,Yvelines,Île-de-France,Ouvert,green,2.1035804,48.719893
Maison des Jeunes et de la Culture - Centre Social Usine à Chapeaux,Yvelines,Île-de-France,Ouvert,green,1.8265947,48.646171
Centre Communal d'Action Sociale (CCAS) de Mareil-Marly,Yvelines,Île-de-France,Fermé,red,2.0771389,48.882149
Maison de la Jeunesse et de la Culture (MJC) de Sartrouville - antenne Martin Luther King,Yvelines,Île-de-France,Ouvert,green,2.1988793,48.9451808
Médiathèque du Jardin des Arts,Yvelines,Île-de-France,Fermé,red,2.0970049,48.8963413
Médiathèque George Sand ,Yvelines,Île-de-France,Fermé,red,2.0701503,48.8941579
Confédération Syndicale des Familles (CSF),Yvelines,Île-de-France,Ouvert,green,2.2036704,48.94500790000001
Rond Point des Parents - Médiateurs dans la ville,Yvelines,Île-de-France,Ouvert,green,2.1587392,48.8884864
EMAJ - Espace Jeunes de Noisy-Bailly,Yvelines,Île-de-France,Ouvert,green,2.070197,48.8385384
Mairie du Chesnay-Rocquencourt,Yvelines,Île-de-France,Ouvert,green,2.1179457,48.8358892
La Ligue de l'Enseignement,Yvelines,Île-de-France,Ouvert,green,1.9963072,48.7693791
Cité des Métiers de Saint-Quentin-en-Yvelines,Yvelines,Île-de-France,Fermé,red,2.0075818,48.7701396
Point Services aux Particuliers,Yvelines,Île-de-France,Fermé,red,1.9885281,48.7774119
Médiathèque Blaise Cendrars,Yvelines,Île-de-France,Fermé,red,2.0986131,48.9983833
Bibliothèque municipale Guy de Maupassant,Yvelines,Île-de-France,Fermé,red,2.0035782,48.9794239
Médiathèque Emile Zola,Yvelines,Île-de-France,Fermé,red,1.7920859,48.98659199999999
Médiathèque de Limay,Yvelines,Île-de-France,Modification,orange,1.7345409,48.9923503
Médiathèque Paul Valéry,Yvelines,Île-de-France,Fermé,red,1.8104242,48.991085
Institut de Formation et de Développement - IFDEV,Yvelines,Île-de-France,Ouvert,green,1.6868499,48.9998449
Centre Communal d'Action Sociale (CCAS) - Montfort-l'Amaury,Yvelines,Île-de-France,Fermé,red,1.810745,48.77687400000001
SOS Familles Emmaüs Yvelines ,Yvelines,Île-de-France,Fermé,red,2.119835699999999,48.7951041
Association La Clef ,Yvelines,Île-de-France,Ouvert,green,2.0885039,48.89406390000001
Mairie de Chapet,Yvelines,Île-de-France,Fermé,red,1.9220536,48.9799294
Mairie de Verneuil-sur-Seine,Yvelines,Île-de-France,Fermé,red,1.9754422,48.9790889
Mairie de Juziers,Yvelines,Île-de-France,Fermé,red,1.8457942,48.9929982
Mairie d'Hardricourt,Yvelines,Île-de-France,Fermé,red,1.8943771,49.0079105
Mairie de Mézy-sur-Seine,Yvelines,Île-de-France,Fermé,red,1.8820215,48.9994206
Mairie de Vaux-sur-Seine,Yvelines,Île-de-France,Fermé,red,1.9634789,49.0062272
Centre Social Joseph Kosma,Yvelines,Île-de-France,Fermé,red,2.0499371,48.7751004
Centre Social Annette Moro,Yvelines,Île-de-France,Fermé,red,1.9907057,48.7834306
Centre social Michel Luxereau,Yvelines,Île-de-France,Fermé,red,2.0009199,48.77238790000001
