name,Fermeture_Estivale,colors,longitude,latitude
ESI La maison du partage ,Fermé,red,2.3742211,48.88172669999999
PAJ (Permanence Accueil Jeunes),Fermé,red,2.3799759999999424,48.871202
Antenne de Paris Centre / Café-rencontre (Eglise Saint Eustache),Fermé,red,2.345897,48.86323609999999
ESI Agora,Fermé,red,2.3454618,48.860153
ESI Espace Saint Martin ,Fermé,red,2.35894,48.8683006
Antenne Etudiant.e.s Bayet - Secours Populaire Français ,Fermé,red,2.3597542,48.82997959999999
Busabri les enfants du Canal,Ouvert,green,2.3141279,48.8648402
Accueil Saint-Laurent,Ouvert,green,2.3586649999999736,48.8746866
Centre d'Accueil et de Médiation Relationnelle Educative et Sociale,Ouvert,green,2.3591698,48.8740093
Entraide et partage avec les sans-logis (EPALSL),Fermé,red,2.3722931,48.8741364
ESI Bichat,Fermé,red,2.3672838,48.871945
ESI Chez monsieur Vincent,Fermé,red,2.3508749999999736,48.8793013
Itinérances,Fermé,red,2.3577064,48.874014
Secours Populaire Français - Fédération de Paris,Ouvert,green,2.3722671,48.8583497
Cœur du cinq,Modification,orange,2.35344740000005,48.8413974
ESI familles Bonne Nouvelle,Fermé,red,2.348954400000025,48.8697805
Antenne de Paris 12 (Immaculée Conception),Fermé,red,2.4030698999999913,48.84611400000001
ESI Halte Femmes,Fermé,red,2.378605,48.8449167
ESI Mazas,Ouvert,green,2.3660474,48.8466556
ESI La maison dans le jardin / Saint-Michel,Fermé,red,2.415072900000041,48.8446199
ESI La maison dans la rue,Fermé,red,2.3942120000000386,48.8464546
Halte Jeunes 18-25,Fermé,red,2.3817386,48.8396095
Espace Bébé Maman et Papa,Ouvert,green,2.39913660000002,48.83716729999999
ESI l'Arche d'Avenirs,Fermé,red,2.367905800000017,48.82262419999999
ESI La maison du 13e,Ouvert,green,2.3632198000000244,48.84017859999999
Le Relais Social,Fermé,red,2.3513152000000446,48.8252597
Accueil du 11bis,Ouvert,green,2.3631959,48.8418381
Antenne Bayet - Secours Populaire Français,Fermé,red,2.3597542,48.82997959999999
Busabri,Fermé,red,2.3288496000000123,48.840008
APASO Croix Rouge,Fermé,red,2.3143360999999913,48.8274249
ESI Centre René Coty,Fermé,red,2.332682400000067,48.83290249999999
Antenne Marcel Paul - Secours Populaire Français,Modification,orange,2.319261200000001,48.8337841
Accueil du Père-Corentin,Ouvert,green,2.3303747,48.8259614
Croix-Rouge - Unité Locale Paris 15,Modification,orange,2.301428699999974,48.8295517
ESV Saint-Christophe de Javel,Modification,orange,2.27898730000004,48.8439103
ESI Familles Georges Pitard Emmaüs Solidarité,Fermé,red,2.3110024999999723,48.83556299999999
Accueil 15,Modification,orange,2.2711773999999423,48.828126
Maison Caritas Grenelle,Ouvert,green,2.2947253,48.8484324
ESI La Halle Saint-Didier,Fermé,red,2.2839639000000034,48.8673842
Accueil de jour des Apennins,Fermé,red,2.3228295,48.8912841
Espace Solidarité Ramey - Secours Populaire,Fermé,red,2.3473272,48.88959
Centre d'accueil et de distribution alimentaire Restos du Coeur 18ème Coustou,Fermé,red,2.3342526000000134,48.8838122
Maison Caritas La Chapelle Paris Nord,Fermé,red,2.3692731,48.8915733
Accueil de Meaux - Eglise Notre Dame des Buttes Chaumont,Fermé,red,2.3783903,48.8842489
Association Autremonde,Fermé,red,2.3895267,48.8705272
Accueil de la Voûte,Fermé,red,2.3914881,48.8732778
Accueil paroissial Saint-Gabriel,Fermé,red,2.4056813,48.85071019999999
Antenne Fougères - Secours Populaire Français,Fermé,red,2.4112067,48.8716379
Bains-douches des Deux Ponts,Fermé,red,2.3564327000000276,48.8515577
Bains-douches Saint Merri,Fermé,red,2.3522293,48.8589608
Bains-douches Lacépède,Fermé,red,2.3501010999999608,48.8443954
Bains-douches Oberkampf,Fermé,red,2.372156200000063,48.86440109999999
Bains-douches Audubon,Fermé,red,2.3693672,48.8460658
Bains-douches Charenton,Fermé,red,2.3849999,48.8433922
Bains-douches Les Amiraux,Fermé,red,2.3506751,48.8946346
Bains-douches Ney,Fermé,red,2.339768499999991,48.8980517
Bains-douches Petitot,Fermé,red,2.3925715,48.8765024
Bains-Douches Rouvet / Piscine,Fermé,red,2.38513080000007,48.89308549999999
Bains-douches Bidassoa,Fermé,red,2.3928778,48.8666477
Bains-douches des Haies,Fermé,red,2.4007656999999654,48.85316239999999
Bains-douche Pyrénées,Fermé,red,2.392631299999948,48.8721539
Bains-Douches  Rome,Fermé,red,2.32243219999998,48.8781293
Bains-douches Meaux,Fermé,red,2.3715638,48.8791099
Piscine Suzanne Berlioux (Les Halles),Fermé,red,2.3432833,48.8628732
Piscine Saint-Merri / Marie-Marvingt,Fermé,red,2.3524175,48.8591413
Piscine Jean Taris,Fermé,red,2.3481774,48.8449464
Piscine Pontoise,Fermé,red,2.3515924,48.8492363
Piscine Saint-Germain,Fermé,red,2.3358901,48.8517838
Piscine Jacqueline Auriol (ex Beaujon),Fermé,red,2.3065426,48.8762713
Piscine Paul Valeyre,Fermé,red,2.3450105,48.8780033
Piscine Georges Drigny,Fermé,red,2.3429844,48.8819847
Piscine Château-Landon,Fermé,red,2.3632885,48.8833274
Piscine Catherine Lagatu (ex Parmentier),Fermé,red,2.369443,48.8715431
Piscine Georges Rigal,Fermé,red,2.393391,48.856438
Piscine de la cour des lions,Fermé,red,2.370251,48.860452
Piscine Jean Boiteux (Ex Reuilly),Fermé,red,2.3893274,48.8421084
Piscine Roger le Gall,Fermé,red,2.4125839,48.8420785
Piscine Joséphine Baker,Fermé,red,2.3776154,48.83391109999999
Piscine Dunois,Fermé,red,2.3663658,48.833077
Piscine de la Butte aux Cailles,Fermé,red,2.3524749,48.82742830000001
Piscine Château des Rentiers,Fermé,red,2.3620701,48.8304931
Piscine Aspirant Dunand,Fermé,red,2.3262763,48.83182840000001
Piscine Didot,Fermé,red,2.3094665,48.8241996
Piscine Keller,Fermé,red,2.2820431,48.8473705
Piscine Blomet,Fermé,red,2.3076451,48.8433684
Piscine Armand Massard,Fermé,red,2.3227763,48.8429143
Piscine Emile Anthoine,Fermé,red,2.2909492,48.8553787
Piscine La Plaine,Fermé,red,2.2939168,48.82782839999999
Piscine René et André Mourlon,Fermé,red,2.2849313,48.8488991
Piscine Henry de Montherlant,Fermé,red,2.271703,48.8675411
Piscine d'Auteuil,Fermé,red,2.2609105,48.8583897
Piscine Champerret,Fermé,red,2.296049,48.8886539
Piscine Bernard Lafay,Fermé,red,2.3186748,48.8944858
Piscine Bertrand Dauvin,Fermé,red,2.3423489,48.89949
Piscine Hébert,Fermé,red,2.36319,48.8938832
Piscine des Amiraux,Fermé,red,2.3509924,48.8942974
Piscine Georges Hermant,Fermé,red,2.3888792,48.8828351
Piscine Edouard Pailleron,Fermé,red,2.3772694,48.880238
Piscine Mathis,Fermé,red,2.3748903,48.8906642
Piscine Georges-Vallerey,Fermé,red,2.4061864,48.8753888
Piscine Alfred Nakache,Fermé,red,2.3788344,48.8712021
Compagnons de la nuit - La Moquette,Fermé,red,2.3416031,48.8456882
Boutique du 104,Fermé,red,2.3714338,48.889982
Fraternité des Epinettes,Fermé,red,2.3215949,48.8938621
Caritas Paris Centre-Est - Maison Saint Ambroise,Fermé,red,2.3766658,48.8619128
Les périchaux,Ouvert,green,2.2946189,48.8299799
Café Social Dejean,Fermé,red,2.350839199999996,48.8871417
Café Social Belleville (20ème),Fermé,red,2.3805280000000266,48.8699253
CAARUD AIDES 75 - Paris les Halles,Fermé,red,2.3494067000000314,48.8665542
CAARUD Charonne 10 - Centre Beaurepaire,Fermé,red,2.3633440999999493,48.86973320000001
CSAPA Espace Murger,Fermé,red,2.3581001,48.881295
CAARUD Boutique 18 - Antenne Mobile,Fermé,red,2.3432001,48.89923649999999
CAARUD EGO - STEP (Programme d'Echange de Seringues) - Association Aurore,Fermé,red,2.3559321,48.8844432
CAARUD Boréal- La Terrasse- GHU Paris Psychiatrie & Neurosciences,Modification,orange,2.3749129,48.8823993
CSAPA (Centre de prévention et soin des addictions) SOS 75 - Site 110 les Halles,Fermé,red,2.3502804,48.8638293
CSAPA Pierre-Nicole,Fermé,red,2.3393151000000216,48.84041259999999
CSAPA Pierre-Nicole Centre Vaucouleurs,Fermé,red,2.3778575999999703,48.8684853
CSAPA La Corde Raide,Fermé,red,2.3787515000000212,48.8445526
CSAPA Charonne,Fermé,red,2.3727609,48.8380692
CSAPA Centre Cassini - Hôpital Cochin (AP-HP),Fermé,red,2.3375239,48.8369913
Centre Ambulatoire d'Addictologie - CSAPA Monte Cristo,Fermé,red,2.2735695,48.8393498
Œuvre de la soupe populaire du 6e,Fermé,red,2.336381500000016,48.85261719999999
Sœurs Missionnaires de la Charité,Fermé,red,2.3714474,48.8647637
Restaurant  Atlas,Fermé,red,2.2898307000000386,48.8491765
Solidarité Chrétienne des Batignolles,Fermé,red,2.322834,48.8827947
"Trinité - Solidarité  ""La Soupe""",Fermé,red,2.3311454,48.877756
Soupe de Nuit de l'Armée du Salut,Fermé,red,2.3498548,48.8889462
Réfectoire Porte de la Villette,Fermé,red,2.38693,48.8993004
Repas chauds La Chorba - Porte de la Villette,Modification,orange,2.3861031999999796,48.8988903
Centre d'accueil et de distribution alimentaire des Restos du Coeur /  Relais du Coeur 19ème La Villette,Modification,orange,2.3861031999999796,48.8988903
Repas chauds Une Chorba Pour Tous - Jaurès,Fermé,red,2.3699093,48.88193769999999
Paris tout P'tits 14ème,Fermé,red,2.3124427,48.8268949
Centre d'accueil et de distribution alimentaire Restos du Coeur 15ème Alleray,Fermé,red,2.3014808000000357,48.83807530000001
Secours Populaire - Montcalm,Fermé,red,2.3359897000000274,48.89204780000001
Camions des restos du cœur 7ème Invalides,Fermé,red,2.3120086,48.861993
Camions des restos du cœur 9ème Saint-Lazare,Fermé,red,2.3305365,48.8746575
Camions des restos du cœur 10ème Gare de l'Est,Fermé,red,2.3611757999999554,48.8762839
Camions des restos du cœur 12ème Nation,Fermé,red,2.4024305000000368,48.8473858
Camions des restos du cœur 14ème Denfert-Rochereau,Fermé,red,2.3362821,48.8343734
Camions des restos du cœur 11ème République,Fermé,red,2.3643617000000177,48.8677352
Camions des restos du cœur 13ème Austerlitz,Fermé,red,2.363445400000046,48.840736
Résidence Saint-Eloi,Ouvert,green,2.386018599999943,48.845607
Centre de repas chauds à table Restos du Coeur 13ème Bédier,Fermé,red,2.372990800000025,48.8208455
Centre d'accueil et de distribution alimentaire Restos du Coeur 10ème Zélenski,Fermé,red,2.3690601000000697,48.8775181
Centre d’accueil et de distribution alimentaire Restos du Cœur 11ème Faidherbe,Fermé,red,2.3849527,48.851598
Distribution colis alimentaire La Chorba - Porte Dorée,Fermé,red,2.403262,48.8340992
Paris tout P'tits 18ème,Fermé,red,2.3667757,48.8998628
Epicerie Solidaire Porte Ouverte et Solidarité,Fermé,red,2.3770634,48.82370359999999
Epicerie Solidaire Saint-Jacques Saint-Christophe,Fermé,red,2.380985600000031,48.88943
Le Marché Solidaire,Modification,orange,2.3218056,48.8326698
La Courte Echelle,Fermé,red,2.3734199,48.8956606
L'étape,Fermé,red,2.300560799999971,48.8423314
Magaliménil,Fermé,red,2.3872638,48.8685633
Centre Corot,Fermé,red,2.270098,48.8470476
Passy Entraide / Notre Dame de Grâce de Passy,Fermé,red,2.2806667,48.8563224
Agence Départementale d'Information sur le Logement (ADIL 75) - Siège,Fermé,red,2.326259,48.8408915
Agence Départementale d'Information sur la Logement (ADIL 75) 1e,Ouvert,green,2.3412674,48.8600425
Agence Départementale d'Information sur la Logement (ADIL 75) 2e,Ouvert,green,2.3405511,48.8667437
Permanence de l'Agence Départementale d'Information sur la Logement (ADIL 75) Mairie du 3ème,Fermé,red,2.3615270000000237,48.86398819999999
Permanence de l'Agence Départementale d'Information sur le Logement (ADIL 75) Mairie du 4ème,Ouvert,green,2.3560193,48.8561368
Permanence de l'Agence Départementale d'Information sur le Logement (ADIL 75) Mairie 5ème,Fermé,red,2.344512200000054,48.84631299999999
Permanence de l'Agence Départementale d'Information sur le Logement (ADIL 75) Mairie du 6ème,Fermé,red,2.332606599999963,48.85055089999999
Permanence de l'Agence Départementale d'Information sur le Logement (ADIL 75) Mairie du 7ème,Fermé,red,2.320070600000008,48.8569189
Permanence de l'Agence Départementale d'Information sur le Logement (ADIL 75) Mairie 8ème,Fermé,red,2.317556800000034,48.8777607
Permanence de l'Agence Départementale d'Information sur le Logement (ADIL 75) Mairie 9ème,Fermé,red,2.3405129000000215,48.8725447
Permanence de l'Agence Départementale d'Information sur le Logement (ADIL 75) Mairie 10ème,Fermé,red,2.3578280000000404,48.87174419999999
Permanence de l'Agence Départementale d'Information sur le Logement (ADIL 75) Mairie 11ème,Fermé,red,2.3793971999999712,48.8585405
Permanence de l'Agence Départementale d'Information sur le Logement (ADIL 75) Mairie 12ème,Fermé,red,2.388099499999953,48.8409134
Permanence de l'Agence Départementale d'Information sur le Logement (ADIL 75) Mairie 13ème,Fermé,red,2.3555112000000236,48.832396
Permanence de l'Agence Départementale d'Information sur le Logement (ADIL 75) Mairie 14ème,Fermé,red,2.3268889999999374,48.83310480000001
Permanence de l'Agence Départementale d'Information sur le Logement (ADIL 75) Mairie 15e,Fermé,red,2.3003453000000036,48.8413986
Permanence de l'Agence Départementale d'Information sur le Logement (ADIL 75) Mairie du 16e,Fermé,red,2.27666679999993,48.8637592
Permanence de l'Agence Départementale d'Information sur le Logement (ADIL 75) Mairie du 17e,Fermé,red,2.322251000000051,48.8842815
Permanence de l'Agence Départementale d'Information sur le Logement (ADIL 75) Mairie 18e,Fermé,red,2.3444633,48.89206309999999
Permanence de l'Agence Départementale d'Information sur le Logement (ADIL 75) Mairie 19e,Fermé,red,2.381788899999947,48.88271579999999
Permanence de l'Agence Départementale d'Information sur la Logement (ADIL 75) Mairie 20ème,Fermé,red,2.3990885000000617,48.8651136
Espace Solidarité Habitat (ESH),Fermé,red,2.4007183999999597,48.8563464
La Bagagerie 188,Fermé,red,2.3849999,48.8433922
Bagagérue,Ouvert,green,2.3565422,48.8514158
La Bagagerie Coeur du Cinq,Fermé,red,2.3544575,48.8414461
Bagagerie Onze Mille Potes,Modification,orange,2.3721562,48.86440109999999
Bagagerie 20 ,Modification,orange,2.409744499999988,48.8635354
Bibliothèque Administrative De La Ville De Paris,Fermé,red,2.3532067,48.8565692
Bibliothèque Amélie,Fermé,red,2.3089712,48.8580723
Bibliothèque André Malraux,Fermé,red,2.3273326,48.8480402
Bibliothèque Batignolles,Fermé,red,2.3221165,48.8843997
Bibliothèque Arthur Rimbaud,Modification,orange,2.3560193,48.8561368
Bibliothèque Andrée Chedid,Fermé,red,2.2864826,48.8500697
Bibliothèque Colette Vivier,Modification,orange,2.3196494,48.8897634
Bibliothèque Buffon,Fermé,red,2.3617271,48.8424393
Bibliotheque Charlotte Delbo,Fermé,red,2.3403795,48.8665115
Bibliothèque Robert Sabatier,Fermé,red,2.3442624,48.8915812
Bibliothèque Courcelles,Fermé,red,2.3029806,48.8778252
Bibliothèque Couronnes - Naguib Mahfouz,Fermé,red,2.3854198,48.87010129999999
Bibliothèque Crimée,Fermé,red,2.3829628,48.8847873
Bibliothèque Des Littératures Policières (Bilipo),Fermé,red,2.3513138,48.8465236
Bibliothèque Diderot,Fermé,red,2.3775478,48.8459507
Bibliothèque Drouot,Modification,orange,2.3404298,48.8734566
Bibliothèque Europe,Fermé,red,2.3175378,48.8777165
Médiathèque Violette Leduc,Modification,orange,2.3841041,48.8515587
Bibliothèque Fessart,Modification,orange,2.3881565,48.8762884
Bibliothèque Claude Lévi-Strauss,Fermé,red,2.3713428,48.8867191
Bibliothèque Forney,Fermé,red,2.3591787,48.8534272
Bibliothèque Du Cinéma François Truffaut,Fermé,red,2.3440655,48.8626788
Bibliothèque François Villon,Fermé,red,2.3707509,48.8771491
Bibliothèque Georges Brassens,Fermé,red,2.325686,48.8335235
Bibliothèque Glacière - Marina Tsvetaïeva,Fermé,red,2.3420092,48.8281603
Bibliothèque Goutte D'Or,Modification,orange,2.3541479000000436,48.884369
Bibliothèque Gutenberg,Fermé,red,2.2786821,48.8402088
Médiathèque Hélène Berr,Fermé,red,2.3972824,48.8424676
Bibliothèque Hergé,Fermé,red,2.3674628,48.88500670000001
Bibliothèque Heure Joyeuse,Fermé,red,2.3451014,48.8520496
Bibliothèque Historique De La Ville De Paris (BHVP),Fermé,red,2.3618333,48.857032
Bibliothèque Italie,Fermé,red,2.356982,48.8307813
Médiathèque Jean-Pierre Melville,Fermé,red,2.366284500000006,48.8267223
Bibliothèque Lancry,Modification,orange,2.360108,48.869387
Bibliothèque Louise Michel,Fermé,red,2.401081999999974,48.853286
Bibliothèque Marguerite Audoux,Modification,orange,2.3601464,48.8636243
Bibliothèque Maurice Genevoix,Modification,orange,2.3637992,48.8949897
Bibliothèque Mohammed Arkoun,Modification,orange,2.3497042,48.8424084
Bibliothèque Musset,Fermé,red,2.2633768,48.8420999
Bibliothèque Parmentier,Fermé,red,2.3790445,48.8600814
Bibliothèque Place Des Fêtes,Fermé,red,2.397528,48.8793927
Bibliothèque Aimé Césaire,Fermé,red,2.31164339999998,48.8311305
Bibliothèque Rainer Maria Rilke,Fermé,red,2.3393115,48.8391598
Médiathèque Edmond Rostand,Fermé,red,2.3032385,48.8885017
Bibliothèque Saint-Eloi,Fermé,red,2.3871686,48.84556240000001
Bibliothèque Oscar Wilde,Modification,orange,2.3998526,48.8720089
Bibliothèque Saint-Simon,Fermé,red,2.3202004,48.856818
Bibliothèque Sorbier,Fermé,red,2.3928486,48.8659674
Bibliothèque Germaine Tillion,Fermé,red,2.2844731,48.8618484
Bibliothèque Valeyre,Modification,orange,2.3450105,48.8780033
Bibliothèque Vaugirard,Modification,orange,2.2992347,48.84187960000001
Médiathèque Marguerite Yourcenar,Fermé,red,2.3032473,48.8368513
Médiathèque Musicale De Paris (Mmp),Fermé,red,2.3457834,48.862568
Bibliothèque Des Conservatoires De La Ville De Paris (Bcvp),Fermé,red,2.3452268,48.8622463
Médiathèque De La Canopée La Fontaine,Modification,orange,2.3467345,48.8620169
Bibliothèque Louise Walser-Gaillard (ex Chatpal),Modification,orange,2.332341,48.8810987
Médiathèque Françoise Sagan,Fermé,red,2.3535435,48.8756062
Bibliothèque De La Maison Du Jardinage,Fermé,red,2.3825649,48.8362051
Bibliothèque Du Breuil,Fermé,red,2.4573733,48.8236299
Bibliothèque De La Maison Paris Nature,Modification,orange,2.4501366,48.830301
Salon de beauté social Joséphine,Fermé,red,2.3529818,48.8844994
Libres Terres des Femmes,Fermé,red,2.3839743999999428,48.8984527
Centre d'Action Sociale de la Ville de Paris (CASVP) et son Service Social de Proximité (SSP) du 2ème,Ouvert,green,2.348736000000031,48.86546939999999
"Le Centre d'action sociale de la Ville de Paris (CASVP) des 1er, 2ème, 3ème et 4ème",Fermé,red,2.3553172,48.8559279
Le Centre d'action sociale de la Ville de Paris (CASVP) du 7ème et son Service Social de Proximité (SSP),Fermé,red,2.320442,48.857464
Le Centre d'action sociale de la Ville de Paris (CASVP) du 6ème et son Service Social de Proximité (SSP),Fermé,red,2.332271,48.850594
Le Centre d'action sociale de la Ville de Paris (CASVP) du 17ème et son Service Social de Proximité (SSP),Fermé,red,2.322251000000051,48.8842815
Service Social de Proximité (SSP) et Centre d'action sociale de la Ville de Paris (CASVP) du 19ème,Fermé,red,2.3834371,48.8838807
Le Centre d'action sociale de la Ville de Paris (CASVP) du 15ème et son Service Social de Proximité (SSP),Fermé,red,2.3010271,48.8406503
"Le Service Social de Proximité de la Ville de Paris (SSP) des 1er, 2ème, 3ème et 4ème arrondissements",Fermé,red,2.361121,48.8636952
Le Centre d'action sociale de la Ville de Paris (CASVP) du 16ème et son Service Social de Proximité (SSP),Fermé,red,2.2765803,48.8639656
Espace Parisien pour l'Insertion (EPI) du 15ème - Moisant,Fermé,red,2.3175085,48.8420536
Service social de proximité (SSP) du 19e,Fermé,red,2.3923841,48.8758692
Le Centre d'action sociale de la Ville de Paris (CASVP) du 1er et son Service Social de Proximité (SSP),Ouvert,green,2.3412674,48.8600425
Le Centre d'action sociale de la Ville de Paris (CASVP) du 5ème et son Service Social de Proximité (SSP),Fermé,red,2.3444932,48.8465518
Le Centre d'action sociale de la Ville de Paris (CASVP) du 8ème et son Service Social de Proximité (SSP),Fermé,red,2.3175378,48.8777165
Le Centre d'action sociale de la Ville de Paris (CASVP) du 9ème et son Service Social de Proximité (SSP),Fermé,red,2.3405129,48.8725447
Le Centre d'action sociale de la Ville de Paris (CASVP) du 10ème et son Service Social de Proximité (SSP),Fermé,red,2.368208099999947,48.87093470000001
Le Centre d'action sociale de la Ville de Paris (CASVP) du 11ème et son Service Social de Proximité (SSP),Fermé,red,2.3780031,48.8540249
SSP (Service social de proximité),Ouvert,green,2.3862671,48.8456064
Le Centre d'action sociale de la Ville de Paris (CASVP) du 12ème et son Service Social de Proximité (SSP),Fermé,red,2.384274600000026,48.8427649
Le Service Social de Proximité (SSP) du Centre d’action sociale de la Ville de Paris (CASVP) du 13ème,Fermé,red,2.359671800000001,48.81940229999999
Le Centre d'action sociale de la Ville de Paris (CASVP) du 13ème et son Service Social de Proximité (SSP),Fermé,red,2.356012400000054,48.8325259
Le Service Social de Proximité (SSP) du Centre d’action sociale de la Ville de Paris (CASVP) du 14ème,Fermé,red,2.3226161000000047,48.8310344
Le Centre d'action sociale de la Ville de Paris (CASVP) du 14ème et son Service Social de Proximité (SSP),Fermé,red,2.3282474000000093,48.8311678
Service Social de Proximité (SSP) du 18ème,Fermé,red,2.3596519999999828,48.88805139999999
Service Social de Proximité (SSP) et Centre d'action sociale de la Ville de Paris (CASVP) du 18ème,Fermé,red,2.343773199999987,48.8922852
Service Social de Proximité (SSP) du 20ème,Fermé,red,2.4004015000000436,48.8627021
Le Centre d'action sociale de la Ville de Paris (CASVP) du 20ème et son Service Social de Proximité (SSP),Fermé,red,2.406311800000026,48.86950419999999
Permanence Sociale d’Accueil (PSA) Gauthey,Fermé,red,2.3212396000000126,48.89294229999999
Permanence Social d'Accueil (PSA) Bastille,Fermé,red,2.3692182,48.8499036
Permanence Sociale d'Accueil (PSA) Belleville,Fermé,red,2.3955941000000394,48.8751981
L'assemblée Citoyenne des Originaires de Turquie (L'ACORT),Fermé,red,2.3677923,48.8893342
PIMMS Paris Sud-Est,Fermé,red,2.3923911,48.8405694
PIMMS Paris Sud,Fermé,red,2.2958057,48.8318322
Accueil Goutte d'Or (Centre social),Fermé,red,2.3543318,48.887907
Accueil Laghouat,Fermé,red,2.352399900000023,48.88661399999999
Ma Plume Est à Vous,Fermé,red,2.3372665,48.898324
PIMMS Paris-Nord-Ouest,Fermé,red,2.336428999999953,48.8986649
Centre social et culturel Danube (CSCD),Modification,orange,2.3936752,48.8827557
FDLT (Femmes de la Terre),Fermé,red,2.3900829,48.8831119
PIMMS Paris-Est,Fermé,red,2.3995548999999983,48.86222499999999
Point d'accès aux droits (PAD) 18,Fermé,red,2.352449,48.887584
Point d'accès aux droits (PAD) 19,Fermé,red,2.3921473000000333,48.87834850000001
Point d'accès aux droits (PAD) 13,Fermé,red,2.3551386999999977,48.8206408
Point d'accès aux droits (PAD) 15,Fermé,red,2.2956950000000234,48.8318042
Maison de Justice et du Droit (MJD) Secteur Nord-Est,Fermé,red,2.3736071,48.8725253
Maison de la Justice et du Droit (MJD) Secteur Paris Sud,Fermé,red,2.3096362,48.8364008
Maison de Justice (MJD) Secteur Nord-Ouest,Fermé,red,2.326478400000042,48.8959218
Bus Barreau de Paris Solidarité,Fermé,red,2.3635537000000113,48.8211008
Bus Barreau de Paris Solidarité,Fermé,red,2.3051657999999406,48.8264011
Bus Barreau de Paris Solidarité,Fermé,red,2.336486299999933,48.89898889999999
Le Bus du Barreau de Paris Solidarité 20e,Fermé,red,2.4119817000000694,48.8530007
Femmes Solidaires,Fermé,red,2.3773605,48.8481405
Accueil Lazare,Fermé,red,2.2850711,48.8695906
Établissement ADN (Amicale du Nid) Paris,Fermé,red,2.3500418,48.877977
Le Bus des femmes,Modification,orange,2.3898781,48.8657035
Accueil Bon Pasteur,Fermé,red,2.392533700000058,48.8561096
PIMMS Paris Nord-Est,Fermé,red,2.3626254,48.8861243
Bus Mairie Mobile 18e,Fermé,red,2.3629217000000153,48.88900279999999
Point d'accès au Droit des Jeunes (PADJ) - CIDJ,Fermé,red,2.3412674,48.86004250000001
CIDFF de Paris (Centre d'information sur les droits des femmes et des familles),Fermé,red,2.3632456,48.872786
Foyer Louise Labé,Fermé,red,2.4119244,48.8546533
CAF - La Chapelle,Fermé,red,2.359043100000008,48.8938127
Espace Parisien pour l'Insertion (EPI) du 12ème,Fermé,red,2.395289000000048,48.8405024
Espace Parisien pour l'Insertion (EPI) du 20ème,Fermé,red,2.400100699999939,48.8535982
Espace Parisien pour l'Insertion (EPI) du 19ème,Fermé,red,2.378949299999931,48.8919185
Espace Parisien pour l'Insertion (EPI) du 18ème,Fermé,red,2.3322324000000663,48.8942683
CAF - Nationale,Fermé,red,2.365526100000011,48.828153
CAF - Laumière,Fermé,red,2.377210399999967,48.88476740000001
CAF - Finlay,Fermé,red,2.2910498,48.8512658
CDAG - CIDDIST Hôpital Cochin - Pavillon Tarnier,Fermé,red,2.3358989,48.8416359
Pôle emploi Daviel,Fermé,red,2.3442909,48.82814740000001
Pôle emploi Beaumarchais,Fermé,red,2.369913,48.8598079
Pôle emploi Laumière,Fermé,red,2.3780895,48.8850687
Pôle emploi Genevoix,Fermé,red,2.3596234,48.8941992
Pôle emploi Armand Carrel,Fermé,red,2.3762596,48.88299749999999
Pôle emploi Piat,Fermé,red,2.3835987,48.87289699999999
Pôle emploi Vitruve,Fermé,red,2.4063176,48.8588999
Pôle emploi Handipass,Fermé,red,2.3827364,48.8641838
PMI Banque,Fermé,red,2.3404580000000124,48.8667382
PMI Dorothée Chellier,Fermé,red,2.3578857,48.8643801
PMI Berthe Hirsch ,Fermé,red,2.3553563000000395,48.85713000000001
PMI Poliveau,Fermé,red,2.3584379999999783,48.8402688
PMI Raspail,Fermé,red,2.3281692000000476,48.84796960000001
PMI,Fermé,red,2.3191894000000275,48.8504098
PMI Passage de la Vierge,Fermé,red,2.306617299999971,48.8556526
PMI (Protection maternelle et infantile) du 8ème arrondissement,Fermé,red,2.3053744,48.87635849999999
PMI Choron,Fermé,red,2.3417770999999448,48.877247
PMI Alban Satragne,Fermé,red,2.3557469,48.8753673
PMI Aqueduc,Fermé,red,2.3654295000000047,48.8834066
PMI Faubourg Saint-Denis,Fermé,red,2.3539683000000196,48.8718075
PMI Villette,Fermé,red,2.3714592999999695,48.87668339999999
PMI Robert et Sonia Delaunay (Charonne),Fermé,red,2.3944912,48.8552592
PMI Godefroy Cavaignac,Fermé,red,2.3810684,48.8553093
PMI Ménilmontant,Fermé,red,2.3839464,48.8657052
PMI Vaucouleurs,Fermé,red,2.377263800000037,48.8698138
PMI Tourneux,Fermé,red,2.3979196,48.8374089
PMI Picpus,Fermé,red,2.396825499999977,48.8436426
PMI Vandrezanne,Fermé,red,2.3529700000000275,48.827977
PMI René Goscinny,Fermé,red,2.380920999999944,48.8309459
PMI 49 Masséna,Fermé,red,2.373452899999961,48.8221725
PMI 134 Masséna,Fermé,red,2.363343500000042,48.81974749999999
PMI Gustave Geffroy,Fermé,red,2.3513897999999926,48.8351378
PMI Hôpital Cochin Port Royal,Fermé,red,2.337311399999976,48.8384285
PMI Brune,Fermé,red,2.307708000000048,48.8269031
PMI Garenne,Fermé,red,2.320327200000065,48.8336328
PMI Périchaux,Fermé,red,2.2977816000000075,48.8304203
PMI Goutte de Lait,Fermé,red,2.295987500000024,48.8508726
Protection Maternelle et Infantile (PMI) Léon Séché,Fermé,red,2.2983268000000407,48.84172470000001
PMI OCM CEASIL - Lebrun,Fermé,red,2.3101580000000013,48.83900380000001
PMI Claude Terrasse,Fermé,red,2.2619818000000578,48.83834479999999
PMI Lauriston,Fermé,red,2.2883562,48.868085
PMI Cesbron,Fermé,red,2.313740300000063,48.8928191
PMI Gauthey,Fermé,red,2.3213571,48.8931241
PMI Pierre Demours,Fermé,red,2.2930876,48.8805575
PMI Salneuve,Fermé,red,2.314357100000052,48.88555640000001
PMI Ney,Fermé,red,2.330406499999981,48.8974379
PMI Boinod,Fermé,red,2.3505883000000267,48.89282139999999
PMI Carpeaux,Fermé,red,2.3298898000000463,48.89048200000001
PMI Binet,Fermé,red,2.3369219999999586,48.8993718
PMI Ordener,Fermé,red,2.3531491999999616,48.8908056
PMI La Chapelle,Fermé,red,2.3584037000000535,48.88720360000001
PMI Tchaïkovski,Fermé,red,2.364986300000055,48.8947674
PMI Clavel,Fermé,red,2.3850947999999335,48.87466389999999
PMI Curial,Fermé,red,2.3719802000000527,48.8911042
PMI Flandre,Fermé,red,2.3732923999999684,48.88739150000001
PMI Verneuil,Fermé,red,2.374308400000018,48.8958102
PMI Oise,Fermé,red,2.3821248000000423,48.89010409999999
PMI Rébéval,Fermé,red,2.3771203000000014,48.87427539999999
PMI Hainaut,Fermé,red,2.3898788000000195,48.8866077
PMI Rhin et Danube,Fermé,red,2.393115200000011,48.8818324
PMI Henri Ribière,Fermé,red,2.3955206000000544,48.8765432
"Centre de PMI Belleville (GOSB, groupe des oeuvres sociales de Belleville)",Fermé,red,2.391619799999944,48.8752831
Centre de PMI Croix Saint Simon - Avron,Fermé,red,2.4081304000000046,48.8532529
PMI des Haies,Fermé,red,2.4028005999999777,48.8541624
PMI Eupatoria,Fermé,red,2.3877754000000095,48.86919069999999
PMI Noisy le sec,Fermé,red,2.4122268999999505,48.8717707
PMI Haxo,Fermé,red,2.4028012999999646,48.87502000000001
PMI Mercouri,Fermé,red,2.401467,48.85749209999999
Centre de santé OSE - Elio Habib - Georges Levy,Fermé,red,2.3980503000000226,48.84262009999999
Centre de Santé Dentaire George-Eastman,Fermé,red,2.359620199999995,48.82890279999999
Restaurant Solidaire Boutebrie,Fermé,red,2.3448925000000145,48.8515319
Restaurant Solidaire Europe,Fermé,red,2.3139499,48.8772594
Restaurant Solidaire Vellefaux,Fermé,red,2.3704743,48.8770758
Restaurant Solidaire Artistes,Fermé,red,2.325910399999998,48.8421543
Restaurant Solidaire Réservoir,Fermé,red,2.4069811,48.86977900000001
Restaurant solidaire Chanzy,Fermé,red,2.3825226,48.8524195
Restaurant Solidaire Les Epinettes,Fermé,red,2.3234278,48.8965275
Restaurant Solidaire Meaux,Fermé,red,2.3770026,48.8833376
Restaurant Solidaire Saint Eloi,Fermé,red,2.386018599999943,48.845607
Fontaine,Ouvert,green,2.3501056,48.8683394
Fontaine,Ouvert,green,2.3526717,48.86722349999999
Fontaine,Ouvert,green,2.3585437,48.8674237
Fontaine,Ouvert,green,2.3632353,48.8648988
Fontaine,Ouvert,green,2.3468913,48.8551272
Fontaine,Ouvert,green,2.3468913,48.8551272
Fontaine,Ouvert,green,2.3474803,48.85591420000001
Fontaine,Ouvert,green,2.3457036,48.854835
Fontaine,Ouvert,green,2.3558977,48.8550981
Fontaine,Ouvert,green,2.3591637,48.8555799
Fontaine,Ouvert,green,2.3578935,48.8400815
Fontaine,Ouvert,green,2.3471304,48.8525631
Fontaine,Ouvert,green,2.3504142,48.8403955
Fontaine,Ouvert,green,2.3561624,48.8396981
Fontaine,Ouvert,green,2.3478548,48.84441289999999
Fontaine,Ouvert,green,2.354946,48.843561
Fontaine,Ouvert,green,2.352168,48.8445826
Fontaine,Ouvert,green,2.3334136,48.8539484
Fontaine,Ouvert,green,2.3324437,48.8503654
Fontaine,Ouvert,green,2.3406228,48.85577439999999
Fontaine,Ouvert,green,2.3300862,48.843812
Fontaine,Ouvert,green,2.3429613,48.8527796
Fontaine,Ouvert,green,2.3238847,48.8443516
Fontaine,Ouvert,green,2.311193,48.8611331
Fontaine,Ouvert,green,2.314856,48.8547377
Fontaine,Ouvert,green,2.2967941,48.8722638
Fontaine,Ouvert,green,2.3037886,48.8714848
Fontaine,Ouvert,green,2.3016578,48.8716884
Fontaine,Ouvert,green,2.2967941,48.8722638
Fontaine,Ouvert,green,2.3373245,48.8794236
Fontaine,Ouvert,green,2.3273806,48.8775081
Fontaine,Ouvert,green,2.3684712,48.87585199999999
Fontaine,Ouvert,green,2.3683405,48.8780067
Fontaine,Ouvert,green,2.3610164,48.87128939999999
Fontaine,Ouvert,green,2.3856387,48.8589606
Fontaine,Ouvert,green,2.3881372,48.8532027
Fontaine,Ouvert,green,2.3720156,48.86614059999999
Fontaine,Ouvert,green,2.3775828,48.8675664
Fontaine,Ouvert,green,2.3693046,48.8544918
Fontaine,Ouvert,green,2.3718922,48.86217689999999
Fontaine,Ouvert,green,2.3833046,48.8673679
Fontaine,Ouvert,green,2.4001827,48.8475701
Fontaine,Ouvert,green,2.4059616,48.8471159
Fontaine,Ouvert,green,2.3698764,48.8468781
Fontaine,Ouvert,green,2.4047413,48.8470852
Fontaine,Ouvert,green,2.3993889,48.8476794
Fontaine,Ouvert,green,2.3873863,48.84093379999999
Fontaine,Ouvert,green,2.3878331,48.84109660000001
Fontaine,Ouvert,green,2.4051869,48.8445076
Fontaine,Ouvert,green,2.3859784,48.842026
Fontaine,Ouvert,green,2.4047744,48.8400688
Fontaine,Ouvert,green,2.3789774,48.8461996
Fontaine,Ouvert,green,2.4129906,48.8457439
Fontaine,Ouvert,green,2.3543621,48.82317459999999
Fontaine,Ouvert,green,2.3723252,48.8384308
Fontaine,Ouvert,green,2.3601235,48.835994
Fontaine,Ouvert,green,2.3694381,48.8284035
Fontaine,Ouvert,green,2.3574771,48.8380592
Fontaine,Ouvert,green,2.3631181,48.8239362
Fontaine,Ouvert,green,2.3486434,48.8277168
Fontaine,Ouvert,green,2.3640098,48.8248669
Fontaine,Ouvert,green,2.3814791,48.8296503
Fontaine,Ouvert,green,2.3781542,48.8317026
Fontaine,Ouvert,green,2.3496206,48.82207
Fontaine,Ouvert,green,2.3182673,48.8296997
Fontaine,Ouvert,green,2.3248201,48.8319021
Fontaine,Ouvert,green,2.3366707,48.8245741
Fontaine,Ouvert,green,2.3314097,48.82389209999999
Fontaine,Ouvert,green,2.3247996,48.8408172
Fontaine,Ouvert,green,2.331888,48.8347148
Fontaine,Ouvert,green,2.3187621,48.8362034
Fontaine,Ouvert,green,2.3328155,48.8282065
Fontaine,Ouvert,green,2.2966014,48.8375648
Fontaine,Ouvert,green,2.287495,48.8487338
Fontaine,Ouvert,green,2.2936663,48.8451418
Fontaine,Ouvert,green,2.3106582,48.8448515
Fontaine,Ouvert,green,2.3132248,48.842817
Fontaine,Ouvert,green,2.2931184,48.835931
Fontaine,Ouvert,green,2.2914004,48.84163890000001
Fontaine,Ouvert,green,2.3028546,48.84194129999999
Fontaine,Ouvert,green,2.3021788,48.83620089999999
Fontaine,Ouvert,green,2.2994829,48.8410952
Fontaine,Ouvert,green,2.3063189,48.8364948
Fontaine,Ouvert,green,2.3031839,48.8323714
Fontaine,Ouvert,green,2.2775311,48.8578258
Fontaine,Ouvert,green,2.2850581,48.8588512
Fontaine,Ouvert,green,2.260867,48.8392695
Fontaine,Ouvert,green,2.2646333,48.848383
Fontaine,Ouvert,green,2.2722018,48.847871
Fontaine,Ouvert,green,2.2982105,48.8850479
Fontaine,Ouvert,green,2.2955434,48.8816692
Fontaine,Ouvert,green,2.29453,48.8799859
Fontaine,Ouvert,green,2.3260456,48.88351249999999
Fontaine,Ouvert,green,2.2907732,48.8796669
Fontaine,Ouvert,green,2.3161067,48.88160269999999
Fontaine,Ouvert,green,2.3217091,48.8841849
Fontaine,Ouvert,green,2.3161987,48.8882505
Fontaine,Ouvert,green,2.3441824,48.9000828
Fontaine,Ouvert,green,2.3457123,48.89920129999999
Fontaine,Ouvert,green,2.3395409,48.8871114
Fontaine,Ouvert,green,2.3378684,48.8860112
Fontaine,Ouvert,green,2.3462604,48.8836358
Fontaine,Ouvert,green,2.3411836,48.8862073
Fontaine,Ouvert,green,2.3382331,48.88455
Fontaine,Ouvert,green,2.3524078,48.8851491
Fontaine,Ouvert,green,2.3492033,48.8873127
Fontaine,Ouvert,green,2.3811513,48.8852937
Fontaine,Ouvert,green,2.3792781,48.8848547
Fontaine,Ouvert,green,2.379216,48.87614019999999
Fontaine,Ouvert,green,2.3747511,48.8825759
Fontaine,Ouvert,green,2.4050192,48.8777869
Fontaine,Ouvert,green,2.3986341,48.8648704
Fontaine,Ouvert,green,2.4055991,48.86479809999999
Fontaine,Ouvert,green,2.3850063,48.8676042
Fontaine,Ouvert,green,2.3857744,48.8716186
Fontaine,Ouvert,green,2.3913099,48.8649766
Fontaine,Ouvert,green,2.4064412,48.8663086
Fontaine,Ouvert,green,2.4090404,48.8527906
"Fontaine ""Millénaire""",Ouvert,green,2.3497597,48.8543897
"Fontaine ""Millénaire""",Ouvert,green,2.3437847,48.8538299
"Fontaine ""Millénaire""",Ouvert,green,2.3758584,48.8337323
"Fontaine ""Millénaire""",Ouvert,green,2.3204416,48.8337368
Fontaine de l'Albien,Ouvert,green,2.3523449,48.8274839
Fontaine de l'Albien,Ouvert,green,2.2757026,48.8652534
Fontaine de l'Albien,Ouvert,green,2.3613408,48.8927759
Fontiane eau pétillante,Ouvert,green,2.3206356,48.8621722
Fontiane eau pétillante,Ouvert,green,2.3878974,48.8418918
Fontiane eau pétillante,Ouvert,green,2.3781326,48.8308821
Fontiane eau pétillante,Ouvert,green,2.2744436,48.8411202
Fontiane eau pétillante,Ouvert,green,2.3205167,48.8904205
Fontiane eau pétillante,Ouvert,green,2.3661207,48.8857458
Fontaine Totem,Ouvert,green,2.353995,48.8547655
Fontaine Totem,Ouvert,green,2.3237957,48.86297640000001
Fontaine Totem,Ouvert,green,2.3512743,48.85702879999999
Fontaine Totem,Ouvert,green,2.3514684,48.8574274
Fontaine Totem,Ouvert,green,2.3156678,48.862732
Fontaine Totem,Ouvert,green,2.3093795,48.862229
Fontaine Totem,Ouvert,green,2.3057163,48.8621464
Fontaine Totem,Ouvert,green,2.3260332,48.8605695
Sanisette et fontaine Arceaux,Ouvert,green,2.36425,48.86848149999999
Fontaine Arceaux,Ouvert,green,2.3656296,48.8673199
Fontaine Arceaux,Ouvert,green,2.3755018,48.83131
Fontaine Arceaux,Ouvert,green,2.3042888,48.8264173
Fontaine Arceaux,Ouvert,green,2.3217797,48.834152
Fontaine Arceaux,Ouvert,green,2.327059,48.89290279999999
Fontaine Poings d'Eau,Ouvert,green,2.4099847,48.8564021
Fontaine Poings d'Eau,Ouvert,green,2.4110565,48.8515798
Fontaine Poings d'Eau,Ouvert,green,2.4110835,48.85286379999999
Fontaine Poings d'Eau,Ouvert,green,2.4108508,48.85392299999999
Fontaine Poings d'Eau,Ouvert,green,2.409923,48.8548304
Fontaine dans un parc,Ouvert,green,2.3457022,48.8630392
Fontaine dans un jardin,Ouvert,green,2.3414521,48.857003
Fontaine dans un Square,Ouvert,green,2.3497315,48.8697695
Fontaine dans un Square,Ouvert,green,2.3369112,48.8684483
Fontaine dans un Square,Ouvert,green,2.3536252,48.8672109
Fontaine dans un Square,Ouvert,green,2.3626237,48.8581373
Fontaine dans un jardin,Ouvert,green,2.3615797,48.8603676
Fontaine dans un Square,Ouvert,green,2.3634513,48.8582846
Fontaine dans un jardin,Ouvert,green,2.3798406,48.8899754
Fontaine dans un Square,Ouvert,green,2.3608435,48.86442830000001
Fontaine dans un Square,Ouvert,green,2.3578716,48.853824
Fontaine dans un Square,Ouvert,green,2.3598907,48.8498903
Fontaine dans un Square,Ouvert,green,2.3579268,48.8587052
Fontaine dans un Square,Ouvert,green,2.3617918,48.8513107
Fontaine dans un Square,Ouvert,green,2.3504153,48.8526315
Fontaine dans un Square,Ouvert,green,2.3655266,48.85561140000001
Fontaine dans un Square,Ouvert,green,2.3567908,48.858936
Fontaine dans un Square,Ouvert,green,2.3491405,48.8576955
Fontaine dans un Square,Ouvert,green,2.3455984,48.85160390000001
Fontaine dans un Square,Ouvert,green,2.3534735,48.8451063
Fontaine dans un Jardin,Ouvert,green,2.3499931,48.850591
Fontaine dans un Jardin,Ouvert,green,2.3443889,48.850769
Fontaine dans un Square,Ouvert,green,2.3500225,48.8483847
Fontaine dans un Square,Ouvert,green,2.3441159,48.850072
Fontaine dans un Square,Ouvert,green,2.3478159,48.8522247
Fontaine dans un Square,Ouvert,green,2.3540974,48.842208
Fontaine dans un Square,Ouvert,green,2.3536815,48.838394
Fontaine dans un Square,Ouvert,green,0.0,0.0
Fontaine dans un Jardin,Ouvert,green,2.3606886,48.8475663
Fontaine dans un Square,Ouvert,green,2.3353157,48.8535714
Fontaine dans un Square,Ouvert,green,2.3338291,48.8543096
Fontaine dans un Jardin,Ouvert,green,2.3369122,48.8428589
Fontaine dans un Square,Ouvert,green,2.3273662,48.8432533
Fontaine dans un Jardin,Ouvert,green,2.3369122,48.8428589
Fontaine dans un Square,Ouvert,green,2.3307592,48.8546122
Fontaine dans un Square,Ouvert,green,2.3137179,48.85032169999999
Fontaine dans un Square,Ouvert,green,2.3148312,48.85782409999999
Fontaine dans un Square,Ouvert,green,2.3256262,48.8514148
Fontaine sur une esplanade,Ouvert,green,2.311636,48.847286
Fontaine dans un Jardin,Ouvert,green,2.2986304,48.8556475
Fontaine dans un Square,Ouvert,green,2.3237979,48.8525742
Fontaine dans un Square,Ouvert,green,2.3133303,48.85108109999999
Fontaine dans un Square,Ouvert,green,2.3189484,48.8575995
Fontaine sur une esplanade,Ouvert,green,2.306177,48.8627203
Fontaine dans un Square,Ouvert,green,2.3086164,48.85639889999999
Fontaine dans un Jardin,Ouvert,green,2.320872,48.8516857
Fontaine dans un Jardin,Ouvert,green,2.3153001,48.8679419
Fontaine dans un Square,Ouvert,green,2.3203264,48.8759392
Fontaine dans un Square,Ouvert,green,2.3229212,48.8741268
Fontaine dans un Parc,Ouvert,green,2.308955,48.8796835
Fontaine dans un Square,Ouvert,green,2.3298582,48.8831694
Fontaine dans un Square,Ouvert,green,2.3366814,48.878396
Fontaine dans un Square,Ouvert,green,2.3449154,48.8822432
Fontaine dans un Square,Ouvert,green,2.3465664,48.8769767
Fontaine dans un Square,Ouvert,green,2.3313627,48.8772871
Fontaine dans un Square,Ouvert,green,2.3517466,48.87824089999999
Fontaine dans un Square,Ouvert,green,2.3552896,48.8755679
Fontaine dans un Square,Ouvert,green,2.3677985,48.8767673
Fontaine dans un Square,Ouvert,green,2.3658184,48.8780175
Fontaine dans un Square,Ouvert,green,2.3671945,48.8689078
Fontaine dans un Square,Ouvert,green,2.3634485,48.8735624
Fontaine dans un Square,Ouvert,green,2.3583289,48.8747777
Fontaine dans un Jardin,Ouvert,green,2.3639131,48.8770611
Fontaine dans un Jardin,Ouvert,green,2.3620194,48.8745705
Fontaine dans un Square,Ouvert,green,2.3695177,48.8754629
Fontaine dans un Square,Ouvert,green,2.3719903,48.8635089
Fontaine dans un Square,Ouvert,green,2.3706099,48.8571788
Fontaine dans un Jardin,Ouvert,green,2.3895022,48.8556245
Fontaine dans un Jardin,Ouvert,green,2.3945693,48.8548943
Fontaine dans un Jardin,Ouvert,green,2.3908688,48.8542455
Fontaine dans un Jardin,Ouvert,green,2.3875709,48.8575784
Fontaine dans un Jardin,Ouvert,green,2.3912648,48.8520759
Fontaine dans un Square,Ouvert,green,2.3810814,48.8652926
Fontaine dans un Square,Ouvert,green,2.369077,48.866479
Fontaine dans un Jardin,Ouvert,green,2.3813542,48.8522201
Fontaine dans un Square,Ouvert,green,2.3856604,48.8597392
Fontaine dans un Square,Ouvert,green,2.3790872,48.861821
Fontaine dans un Jardin,Ouvert,green,2.383207,48.85681
Fontaine dans un Jardin,Ouvert,green,2.3752629,48.8699051
Fontaine dans un Jardin,Ouvert,green,2.3876596,48.8550033
Fontaine dans un Square,Ouvert,green,2.3814878,48.85255830000001
Fontaine dans un Jardin,Ouvert,green,2.3766096,48.8560972
Fontaine dans un Jardin,Ouvert,green,2.3846588,48.8599174
Fontaine dans un Square,Ouvert,green,2.3849499,48.8597417
Fontaine dans un Jardin,Ouvert,green,2.3856597,48.8520062
Fontaine dans un Jardin,Ouvert,green,2.3678933,48.8496913
Fontaine dans un Square,Ouvert,green,2.388935,48.8387194
Fontaine dans un Jardin,Ouvert,green,2.387627,48.8421563
Fontaine dans un Square,Ouvert,green,2.3876021,48.8448026
Fontaine dans un Jardin,Ouvert,green,2.375182,48.847971
Fontaine dans un Square,Ouvert,green,2.3789098,48.8444251
Fontaine dans un Parc,Ouvert,green,2.4362888,48.82857560000001
Fontaine dans un Parc,Ouvert,green,2.3812948,48.8363163
Fontaine dans un Square,Ouvert,green,2.4066972,48.8393449
Fontaine dans un Jardin,Ouvert,green,2.401601,48.8360389
Fontaine dans un Square,Ouvert,green,2.4070292,48.834725
Fontaine dans un Jardin,Ouvert,green,2.4035435,48.8456802
Fontaine dans un Jardin,Ouvert,green,2.4091451,48.8419461
Fontaine dans un Jardin,Ouvert,green,2.3644907,48.8226912
Fontaine dans un Square,Ouvert,green,2.3749366,48.8221134
Fontaine dans un Jardin,Ouvert,green,2.3497022,48.82944519999999
Fontaine dans un Square,Ouvert,green,2.3693516,48.825696
Fontaine dans un Square,Ouvert,green,2.3603551,48.8256313
Fontaine dans un Jardin,Ouvert,green,2.3748057,48.8256361
Fontaine dans un Square,Ouvert,green,2.3619798,48.8193393
Fontaine dans un Jardin,Ouvert,green,2.3779829,48.83197850000001
Fontaine dans un Jardin,Ouvert,green,2.3533097,48.8238508
Fontaine dans un Square,Ouvert,green,2.3623387,48.8337399
Fontaine dans un Square,Ouvert,green,2.3600207,48.8187551
Fontaine dans un Square,Ouvert,green,2.3698621,48.83078339999999
Fontaine dans un Square,Ouvert,green,2.3423331,48.83460160000001
Fontaine dans un Square,Ouvert,green,2.3545251,48.8309344
Fontaine dans un Jardin,Ouvert,green,2.3737064,48.8360295
Fontaine dans un Jardin,Ouvert,green,2.3603863,48.8201629
Fontaine dans un Parc,Ouvert,green,2.3540682,48.8193879
Fontaine dans un Jardin,Ouvert,green,2.3621471,48.8327332
Fontaine dans un Square,Ouvert,green,2.3634184,48.84071669999999
Fontaine dans un Jardin,Ouvert,green,2.3431378,48.825869
Fontaine dans un Jardin,Ouvert,green,2.3540226,48.826794
Fontaine dans un Jardin,Ouvert,green,2.3573442,48.8210488
Fontaine dans un Jardin,Ouvert,green,2.3488336,48.82306029999999
Fontaine dans un Jardin,Ouvert,green,2.3571817,48.8225314
Fontaine dans un Square,Ouvert,green,2.3495501,48.8324077
Fontaine dans un Square,Ouvert,green,2.3600222,48.8180698
Fontaine dans un Square,Ouvert,green,2.3679259,48.8230227
Fontaine dans un Square,Ouvert,green,2.3196882,48.8319276
Fontaine dans un Parc,Ouvert,green,2.3378563,48.8223062
Fontaine dans un Square,Ouvert,green,2.313254,48.8318219
Fontaine dans un Square,Ouvert,green,2.3367306,48.8272163
Fontaine dans un Square,Ouvert,green,2.3261324,48.8319013
Fontaine dans un Square,Ouvert,green,2.3162258,48.8362295
Fontaine dans un Square,Ouvert,green,2.3206324,48.8313064
Fontaine dans un Jardin,Ouvert,green,2.3197261,48.8339913
Fontaine dans un Square,Ouvert,green,2.3314319,48.8343672
Fontaine dans un Square,Ouvert,green,2.3265342,48.8325222
Fontaine dans un Jardin,Ouvert,green,2.3115301,48.8327204
Fontaine dans un Square,Ouvert,green,2.318784,48.82395229999999
Fontaine dans un Square,Ouvert,green,2.3035311,48.8262177
Fontaine dans un Jardin,Ouvert,green,2.3133199,48.8310362
Fontaine dans un Jardin,Ouvert,green,2.3068929,48.8289531
Fontaine dans un Square,Ouvert,green,2.3118662,48.8333331
Fontaine dans un Square,Ouvert,green,2.3234494,48.8215805
Fontaine dans un Jardin,Ouvert,green,2.3003371,48.8402131
Fontaine dans un Jardin,Ouvert,green,2.310049,48.8363184
Fontaine dans un Jardin,Ouvert,green,2.2806546,48.8404471
Fontaine dans un Jardin,Ouvert,green,2.2783421,48.8383419
Fontaine dans un Parc,Ouvert,green,2.2744436,48.8411202
Fontaine dans un Jardin,Ouvert,green,2.3188302,48.8397648
Fontaine dans un Square,Ouvert,green,2.3024621,48.84818190000001
Fontaine dans un Square,Ouvert,green,2.2725721,48.8372271
Fontaine dans un Square,Ouvert,green,2.2908013,48.8367716
Fontaine dans un Square,Ouvert,green,2.2924484,48.8450158
Fontaine dans un Square,Ouvert,green,2.2977518,48.8286555
Fontaine dans un Square,Ouvert,green,2.2956026,48.8514858
Fontaine dans un Jardin,Ouvert,green,2.3133754,48.843078
Fontaine dans un Square,Ouvert,green,2.3018976,48.8484408
Fontaine dans un Parc,Ouvert,green,2.3002376,48.83163039999999
Fontaine dans un Square,Ouvert,green,2.2977239,48.84022119999999
Fontaine dans un Square,Ouvert,green,2.2803764,48.8385972
Fontaine dans un Jardin,Ouvert,green,2.2942781,48.85226369999999
Fontaine dans un Square,Ouvert,green,2.2861075,48.8487425
Fontaine dans un Square,Ouvert,green,2.2929087,48.8285191
Fontaine dans un Square,Ouvert,green,2.2966437,48.8423992
Fontaine dans un Square,Ouvert,green,2.2892293,48.8439619
Fontaine dans un Square,Ouvert,green,2.2989259,48.8298718
Fontaine dans un Parc,Ouvert,green,2.3082702,48.8364825
Fontaine dans un Jardin,Ouvert,green,2.3084733,48.8357952
Fontaine dans un Jardin,Ouvert,green,2.3041532,48.8369407
Fontaine dans un Square,Ouvert,green,2.3065059,48.8395286
Fontaine dans un Square,Ouvert,green,2.305439,48.84202810000001
Fontaine dans un Square,Ouvert,green,2.3133103,48.8381348
Fontaine dans un Jardin,Ouvert,green,2.3108557,48.8374002
Fontaine dans un Square,Ouvert,green,2.2810847,48.8767897
Fontaine dans un Parc,Ouvert,green,2.2491727,48.86244019999999
Fontaine dans un Jardin,Ouvert,green,2.2836579,48.87277479999999
Fontaine dans un Jardin,Ouvert,green,2.2725852,48.8686407
Fontaine dans un Square,Ouvert,green,2.2751765,48.8517533
Fontaine dans un Square,Ouvert,green,2.2752181,48.8649259
Fontaine dans un Jardin,Ouvert,green,2.2718908,48.8512794
Fontaine dans un Square,Ouvert,green,2.2967106,48.8652754
Fontaine dans un Parc,Ouvert,green,2.2834273,48.8557918
Fontaine dans un Jardin,Ouvert,green,2.2569914,48.8379255
Fontaine dans un Jardin,Ouvert,green,2.2691849,48.8592897
Fontaine dans un Jardin,Ouvert,green,2.270606,48.8530637
Fontaine dans un Jardin,Ouvert,green,2.2689199,48.8458255
Fontaine dans un Square,Ouvert,green,2.2947864,48.8675347
Fontaine dans un Jardin,Ouvert,green,2.2892823,48.8615963
Fontaine dans un Jardin,Ouvert,green,2.29852,48.8894098
Fontaine dans un Square,Ouvert,green,2.3165006,48.8874924
Fontaine dans un Square,Ouvert,green,2.2904897,48.8824072
Fontaine dans un Jardin,Ouvert,green,2.2900893,48.8876801
Fontaine dans un Square,Ouvert,green,2.322387,48.8994668
Fontaine dans un Square,Ouvert,green,2.3266748,48.894199
Fontaine dans un Square,Ouvert,green,2.3249541,48.8874166
Fontaine dans un Jardin,Ouvert,green,2.2962088,48.8843907
Fontaine dans un Jardin,Ouvert,green,2.3038048,48.8916733
Fontaine dans un Square,Ouvert,green,2.3257766,48.8959531
Fontaine dans un Square,Ouvert,green,2.3080234,48.8892482
Fontaine dans un Square,Ouvert,green,2.2932152,48.8875994
Fontaine dans un Square,Ouvert,green,2.3075833,48.8872407
Fontaine dans un Square,Ouvert,green,2.3243221,48.8939655
Fontaine dans un Parc,Ouvert,green,2.3172309,48.8906518
Fontaine dans un Square,Ouvert,green,2.3253449,48.8900797
Fontaine dans un Jardin,Ouvert,green,2.294414,48.8863193
Fontaine dans un Jardin,Ouvert,green,2.3193279,48.8951732
Fontaine dans un Square,Ouvert,green,2.2909225,48.886137
Fontaine dans un Square,Ouvert,green,2.3379531,48.889307
Fontaine dans un Parc,Ouvert,green,2.3437338,48.8878038
Fontaine dans un Square,Ouvert,green,2.337654,48.887999
Fontaine dans un Square,Ouvert,green,2.3317607,48.8916997
Fontaine dans un Square,Ouvert,green,2.3433128,48.885233
Fontaine dans un Square,Ouvert,green,2.3386422,48.8847485
Fontaine dans un Square,Ouvert,green,2.3369354,48.88642429999999
Fontaine dans un Jardin,Ouvert,green,2.3271937,48.88556759999999
Fontaine dans un Square,Ouvert,green,2.3419048,48.8859417
Fontaine dans un Square,Ouvert,green,2.3610305,48.89584439999999
Fontaine dans un Square,Ouvert,green,2.3568105,48.88492189999999
Fontaine dans un Square,Ouvert,green,2.3599761,48.8846913
Fontaine dans un Square,Ouvert,green,2.353585,48.8887207
Fontaine dans un Square,Ouvert,green,2.3633049,48.89359899999999
Fontaine dans un Jardin,Ouvert,green,2.3641708,48.8953379
Fontaine dans un Square,Ouvert,green,2.3673027,48.8997764
Fontaine dans un Square,Ouvert,green,2.3561167,48.8861338
Fontaine dans un Jardin,Ouvert,green,2.3667674,48.8868187
Fontaine dans un Jardin,Ouvert,green,2.3376144,48.8992029
Fontaine dans un Square,Ouvert,green,2.3339483,48.8990824
Fontaine dans un Square,Ouvert,green,2.3392523,48.8927872
Fontaine dans un Square,Ouvert,green,2.338334,48.8988232
Fontaine dans un Jardin,Ouvert,green,2.3452262,48.8999928
Fontaine dans un Square,Ouvert,green,2.3510701,48.894578
Fontaine dans un Square,Ouvert,green,2.334580700000001,48.8968657
Fontaine dans un Square,Ouvert,green,2.3492602,48.8940715
Fontaine dans un Square,Ouvert,green,2.3463247,48.8930662
Fontaine dans un Square,Ouvert,green,2.379367100000001,48.8890694
Fontaine dans un Jardin,Ouvert,green,2.39665,48.8815683
Fontaine dans un Parc,Ouvert,green,2.3827609,48.8809496
Fontaine dans un Jardin,Ouvert,green,2.3926819,48.8782134
Fontaine dans un Square,Ouvert,green,2.3841498,48.8940059
Fontaine dans un Square,Ouvert,green,2.3743968,48.8999883
Fontaine dans un Square,Ouvert,green,2.3771593,48.8854139
Fontaine dans un Square,Ouvert,green,2.397694,48.887595
Fontaine dans un Square,Ouvert,green,2.3932293,48.8771117
Fontaine dans un Square,Ouvert,green,2.39026,48.8938489
Fontaine dans un Square,Ouvert,green,2.3789103,48.8746553
Fontaine dans un Jardin,Ouvert,green,2.3744615,48.889693
Fontaine dans un Jardin,Ouvert,green,2.3758248,48.8993395
Fontaine dans un Square,Ouvert,green,2.3929675,48.8784791
Fontaine dans un Square,Ouvert,green,2.3820362,48.885071
Fontaine dans un Square,Ouvert,green,2.3738843,48.88634949999999
Fontaine dans un Square,Ouvert,green,2.3877162,48.8716596
Fontaine dans un Square,Ouvert,green,2.4048587,48.860599
Fontaine dans un Parc,Ouvert,green,2.3847051,48.8710678
Fontaine dans un Square,Ouvert,green,2.3821572,48.8689081
Fontaine dans un Square,Ouvert,green,2.4014551,48.853972
Fontaine dans un Square,Ouvert,green,2.4091071,48.8528025
Fontaine dans un Square,Ouvert,green,2.415891,48.8486256
Fontaine dans un Jardin,Ouvert,green,2.4064324,48.8622819
Fontaine dans un Square,Ouvert,green,2.406569,48.87581489999999
Fontaine dans un Square,Ouvert,green,2.4002591,48.8656224
Fontaine dans un Square,Ouvert,green,2.3903761,48.866505
Fontaine dans un Square,Ouvert,green,2.4119065,48.8704735
Fontaine dans un Square,Ouvert,green,2.4064805,48.8592854
Fontaine dans un Square,Ouvert,green,2.4009481,48.8597137
Fontaine dans un Square,Ouvert,green,2.4114342,48.8718118
Fontaine dans un Square,Ouvert,green,2.4119225,48.860098
Fontaine dans un Jardin,Ouvert,green,2.3839696,48.86827419999999
Fontaine dans un Jardin,Ouvert,green,2.4002662,48.8588228
Fontaine dans un Square,Ouvert,green,2.3878816,48.868312
Fontaine dans un Square,Ouvert,green,2.4001381,48.85089120000001
Fontaine dans un Jardin,Ouvert,green,2.3966579,48.8730296
Fontaine dans un Square,Ouvert,green,2.4047228,48.8489335
Fontaine dans un Square,Ouvert,green,2.4010701,48.8561832
Fontaine dans un Square,Ouvert,green,2.3971663,48.8705056
Fontaine dans un Square,Ouvert,green,2.4063884,48.8578593
Fontaine dans un Square,Ouvert,green,2.3927259,48.8638904
Fontaine dans un Square,Ouvert,green,2.4040196,48.8493447
Fontaine dans un Square,Ouvert,green,2.4102583,48.8656799
Fontaine dans un Square,Ouvert,green,2.392103,48.8664508
Fontaine dans un Square,Ouvert,green,2.3941814,48.8700577
La Clairière,Fermé,red,2.3476719999999887,48.865601
L'annexe - Espace Public Numérique (EPN) RELAIS 59,Fermé,red,2.3771865,48.8448851
EPN La goutte d'ordinateur,Fermé,red,2.3533271000000013,48.88718219999999
EPN Lorem,Fermé,red,2.310961,48.82741129999999
Espace 19 numérique,Fermé,red,2.3780865,48.8893155
EPN3 Helen Adams Keller,Ouvert,green,2.360662,48.86404479999999
AGECA,Modification,orange,2.392121999999972,48.856037
Espace Public Numérique (EPN) Cefia,Fermé,red,2.3258446,48.8962564
Maison de la Médiation Numérique du 13ème,Fermé,red,2.3653868,48.82452199999999
L'éternel Solidaire,Modification,orange,2.389999,48.88293059999999
Centre Social Espace Torcy - École Normale Sociale,Modification,orange,2.3651623,48.89122649999999
Le Picoulet - Centre social,Modification,orange,2.3742571,48.8683574
Centre Social des Rigoles,Fermé,red,2.3911451999999827,48.8732897
Maison de la médiation numérique du 20ème,Fermé,red,2.4108899,48.8502954
Maison Départementale des Personnes Handicapées de Paris (MDPH),Fermé,red,2.3333292,48.8749802
Permanences Barreau de Paris - Tribunal de Paris,Fermé,red,2.310162499999933,48.8954952
"Femmes pour le Dire, Femmes pour Agir (FDFA)",Fermé,red,2.311289699999975,48.8376372
ADAPS,Fermé,red,2.3268889999999374,48.83310480000001
PARIS_WIFI_0105,Ouvert,green,2.34111473246,48.8601078654
PARIS-WIFI_0303,Ouvert,green,2.36223261761,48.8640736606
PARIS-WIFI_0305,Ouvert,green,2.36283100833,48.8570538771
PARIS_WIFI_0408,Ouvert,green,2.36088930871,48.857544856
PARIS_WIFI_0409,Ouvert,green,2.35277482652,48.8568497609
PARIS_WIFI_0412,Ouvert,green,2.35257432455,48.8562903797
PARIS_WIFI_0425,Ouvert,green,2.35687365056,48.8590467871
PARIS_WIFI_0504,Ouvert,green,2.34965522363,48.8424907476
PARIS_WIFI_0505,Ouvert,green,2.33884632461,48.8392387803
PARIS_WIFI_0509,Ouvert,green,2.35421228112,48.845106886
PARIS_WIFI_0705,Ouvert,green,2.32022161186,48.8567893849
PARIS_WIFI_0710,Ouvert,green,2.30471896501,48.8630022897
PARIS_WIFI_0803,Ouvert,green,2.3046083551,48.8753613981
PARIS_WIFI_0807,Ouvert,green,2.31236280278,48.8797094025
PARIS_WIFI_0810,Ouvert,green,2.30841832253,48.8789462605
PARIS_WIFI_0908,Ouvert,green,2.34672780499,48.8771654325
PARIS_WIFI_1011,Ouvert,green,2.36828576609,48.8774489193
PARIS_WIFI_1012,Ouvert,green,2.36917818391,48.8755733304
PARIS_WIFI_1102,Ouvert,green,2.38394122652,48.8515929916
PARIS_WIFI_1103,Ouvert,green,2.37896651286,48.8601578588
PARIS_WIFI_1110,Ouvert,green,2.37196555619,48.8591878705
PARIS_WIFI_1112,Ouvert,green,2.38953706886,48.8565343793
PARIS_WIFI_1201,Ouvert,green,2.37175706033,48.8523858552
PARIS_WIFI_1212,Ouvert,green,2.36758641239,48.8489152488
PARIS_WIFI_1225,Ouvert,green,2.45971603749,48.8241419911
PARIS_WIFI_1306,Ouvert,green,2.36768633212,48.8200121667
PARIS_WIFI_1311,Ouvert,green,2.35405196524,48.8270873565
PARIS_WIFI_1312,Ouvert,green,2.3567340211,48.8210608474
PARIS_WIFI_1330,Ouvert,green,2.34789219571,48.8193910283
PARIS_WIFI_1407,Ouvert,green,2.31472453275,48.8242944285
PARIS_WIFI_1408,Ouvert,green,2.32254613935,48.8279545752
PARIS_WIFI_1411,Ouvert,green,2.3364525177,48.8240679266
PARIS_WIFI_1412,Ouvert,green,2.33975052526,48.8237693049
PARIS_WIFI_1503,Ouvert,green,2.29933218752,48.8417043876
PARIS_WIFI_1506,Ouvert,green,2.27890825451,48.8403168378
PARIS_WIFI_1507,Ouvert,green,2.26860805726,48.8307875118
PARIS_WIFI_1514,Ouvert,green,2.29617783061,48.8316669573
PARIS_WIFI_1515,Ouvert,green,2.31882430208,48.8430164163
PARIS_WIFI_1521,Ouvert,green,2.3085973923,48.8358746378
PARIS_WIFI_1523,Ouvert,green,2.29079287641,48.8370648096
PARIS_WIFI_1526,Ouvert,green,2.28899916602,48.8439855409
PARIS_WIFI_1603,Ouvert,green,2.2713484272,48.8585457603
PARIS_WIFI_1611,Ouvert,green,2.28338066009,48.8561476366
PARIS_WIFI_1705,Ouvert,green,2.29100195371,48.8815091734
PARIS_WIFI_1707,Ouvert,green,2.32373281829,48.8950275664
PARIS_WIFI_1802,Ouvert,green,2.35414860209,48.8844784418
PARIS_WIFI_1806,Ouvert,green,2.36616899921,48.886505526
PARIS_WIFI_1807,Ouvert,green,2.34462686928,48.892372855
PARIS_WIFI_1813,Ouvert,green,2.342763174,48.8961473895
PARIS_WIFI_1902,Ouvert,green,2.37910385933,48.8927583873
PARIS_WIFI_1906,Ouvert,green,2.36721616099,48.8850108468
PARIS_WIFI_1908,Ouvert,green,2.3944824572,48.8841604534
PARIS_WIFI_1912,Ouvert,green,2.36774947532,48.8870059316
PARIS_WIFI_1913,Ouvert,green,2.3996810996,48.8807190826
PARIS_WIFI_2006,Ouvert,green,2.3941144427,48.8699454407
PARIS_WIFI_2011,Ouvert,green,2.4102993692,48.8521420722
PARIS_WIFI_2012,Ouvert,green,2.40686731214,48.8619525803
PARIS_WIFI_2013,Ouvert,green,2.39897868591,48.8650886423
PARIS_WIFI_2026,Ouvert,green,2.38975938427,48.8630960239
PARIS-WIFI_0306,Ouvert,green,2.35399598767,48.8673464006
PARIS_WIFI_0514,Ouvert,green,2.35391002939,48.838671301
PARIS_WIFI_0512,Ouvert,green,2.3477322291,48.8519933673
PARIS_WIFI_0709,Ouvert,green,2.32596344906,48.8609159686
PARIS_WIFI_0802,Ouvert,green,2.31748408177,48.877764489
PARIS_WIFI_0804,Ouvert,green,2.31068828416,48.8650428754
PARIS_WIFI_0809,Ouvert,green,2.30916596953,48.8799517378
PARIS_WIFI_0811,Ouvert,green,2.31797342813,48.865838237
PARIS_WIFI_0902,Ouvert,green,2.33221282964,48.8811184405
PARIS_WIFI_0904,Ouvert,green,2.34500284181,48.8779643568
PARIS_WIFI_0906,Ouvert,green,2.33591799545,48.880975162
PARIS_WIFI_1001,Ouvert,green,2.35747939352,48.871986323
PARIS_WIFI_1013,Ouvert,green,2.36326114718,48.8679155192
PARIS_WIFI-1014,Ouvert,green,2.36453235797,48.8671435465
PARIS_WIFI_1101,Ouvert,green,2.37730673878,48.8705478731
PARIS_WIFI_1108,Ouvert,green,2.37950203084,48.8584983297
PARIS_WIFI_1111,Ouvert,green,2.37096373813,48.8572236161
PARIS_WIFI_1115,Ouvert,green,2.38435591404,48.8591281391
PARIS_WIFI_1117,Ouvert,green,2.37512483135,48.8700322353
PARIS_WIFI_1206,Ouvert,green,2.38709214325,48.8455266324
PARIS_WIFI_1207,Ouvert,green,2.38851379153,48.8441338569
PARIS_WIFI_1211,Ouvert,green,2.3895571773,48.8425951975
PARIS_WIFI_1214,Ouvert,green,2.40401353127,48.8465775126
PARIS_WIFI_1215,Ouvert,green,2.38831865983,48.8411015719
PARIS_WIFI_1217,Ouvert,green,2.38484685753,48.8336141279
PARIS_WIFI_1218,Ouvert,green,2.38214295821,48.8355926377
PARIS_WIFI_1220,Ouvert,green,2.38221646269,48.8345376107
PARIS_WIFI_1221,Ouvert,green,2.39543250665,48.8412482374
PARIS_WIFI_1303,Ouvert,green,2.36643263217,48.8269244189
PARIS_WIFI_1309,Ouvert,green,2.36943095041,48.8253806396
PARIS_WIFI_1313,Ouvert,green,2.37375724125,48.8362774558
PARIS_WIFI_1314,Ouvert,green,2.34327570877,48.8260050318
PARIS_WIFI_1320,Ouvert,green,2.36103510605,48.8283229982
PARIS_WIFI_1321,Ouvert,green,2.35380188239,48.8184882013
PARIS_WIFI_1324,Ouvert,green,2.34850476279,48.8230233685
PARIS_WIFI_1326,Ouvert,green,2.37774192291,48.8319926591
PARIS_WIFI_1327,Ouvert,green,2.36253450181,48.8337536419
PARIS_WIFI_1405,Ouvert,green,2.3325420481,48.8296812422
PARIS_WIFI_1406,Ouvert,green,2.31583554987,48.8229081305
PARIS_WIFI_1416,Ouvert,green,2.32069408488,48.8311651892
PARIS_WIFI_1419,Ouvert,green,2.32344244612,48.8221287373
PARIS_WIFI_1509,Ouvert,green,2.27025278645,48.8303867181
PARIS_WIFI_1510,Ouvert,green,2.31932555302,48.8403295371
PARIS_WIFI_1518,Ouvert,green,2.2764095458,48.8400487442
PARIS_WIFI_1606,Ouvert,green,2.25415817921,48.8370298439
PARIS_WIFI_1609,Ouvert,green,2.28417155183,48.8565345311
PARIS_WIFI_1702,Ouvert,green,2.31957170477,48.8897960193
PARIS_WIFI_1708,Ouvert,green,2.31398682722,48.8915282686
PARIS_WIFI_1803,Ouvert,green,2.36379195357,48.8949881304
PARIS_WIFI_1805,Ouvert,green,2.36555873809,48.8871333262
PARIS_WIFI_1808,Ouvert,green,2.33550733728,48.8938296762
PARIS_WIFI_1812,Ouvert,green,2.33913501753,48.89259525
PARIS_WIFI_1904,Ouvert,green,2.38816525232,48.876266177
PARIS_WIFI_1905,Ouvert,green,2.37137449359,48.886681086
PARIS_WIFI_1914,Ouvert,green,2.3987882461,48.8811763995
PARIS_WIFI_2004,Ouvert,green,2.39978054839,48.8720611013
PARIS_WIFI_2014,Ouvert,green,2.39100341209,48.8734926267
PARIS_WIFI_2018,Ouvert,green,2.38483338503,48.8705722195
PARIS_WIFI_2024,Ouvert,green,2.41104183082,48.8699787695
PARIS_WIFI_2025,Ouvert,green,2.39623973973,48.8732544911
PARIS_WIFI_0101,Ouvert,green,2.34625957953,48.8619750011
PARIS_WIFI_0104,Ouvert,green,2.34664338204,48.8622728573
PARIS-WIFI_0307,Ouvert,green,2.36306456733,48.8581334656
PARIS_WIFI_0416,Ouvert,green,2.36641699018,48.8521949946
PARIS_WIFI_0417,Ouvert,green,2.351203352,48.8572541177
PARIS_WIFI_0418,Ouvert,green,2.35201906309,48.8566041221
PARIS_WIFI_0419,Ouvert,green,2.35194348442,48.8564668226
PARIS_WIFI_0423,Ouvert,green,2.36594749989,48.8560301492
PARIS_WIFI_0513,Ouvert,green,2.35053007801,48.8397611899
PARIS_WIFI_0507,Ouvert,green,2.35913214668,48.8483184762
PARIS_WIFI_0603,Ouvert,green,2.33960745162,48.8535493009
PARIS_WIFI_0702,Ouvert,green,2.3198131501,48.8569052173
PARIS_WIFI_0706,Ouvert,green,2.30720817842,48.8595670999
PARIS_WIFI_0805,Ouvert,green,2.31765084245,48.8777708078
PARIS_WIFI_0808,Ouvert,green,2.31432866167,48.8660592622
PARIS_WIFI_0812,Ouvert,green,2.32278856935,48.8739192913
PARIS_WIFI_0909,Ouvert,green,2.33125629333,48.8767931286
PARIS_WIFI_1002,Ouvert,green,2.37076940744,48.8772456273
PARIS_WIFI_1004,Ouvert,green,2.3620772877,48.8690385083
PARIS_WIFI_1005,Ouvert,green,2.36391067319,48.8750422694
PARIS_WIFI_1016,Ouvert,green,2.35384346889,48.8757219594
PARIS_WIFI_1104,Ouvert,green,2.3716398509,48.863341757
PARIS_WIFI_1105,Ouvert,green,2.38541833756,48.8521551454
PARIS_WIFI_1106,Ouvert,green,2.39401825952,48.8548515814
PARIS_WIFI_1107,Ouvert,green,2.38103005903,48.8519724545
PARIS_WIFI_1113,Ouvert,green,2.39050010837,48.8520646745
PARIS_WIFI_1114,Ouvert,green,2.38085640074,48.865823693
PARIS_WIFI_1216,Ouvert,green,2.39240236114,48.8404983201
PARIS_WIFI_1222,Ouvert,green,2.41262614003,48.8418972579
PARIS_WIFI_1223,Ouvert,green,2.40674875166,48.8387416493
PARIS_WIFI_1224,Ouvert,green,2.38710866721,48.8441922513
PARIS_WIFI_1302,Ouvert,green,2.35706889575,48.8309196163
PARIS_WIFI_1304,Ouvert,green,2.35665036433,48.8197414172
PARIS_WIFI_1307,Ouvert,green,2.36824852957,48.8206005539
PARIS_WIFI_1329,Ouvert,green,2.34243444092,48.8344434589
PARIS_WIFI_1413,Ouvert,green,2.3397562107,48.8239626856
PARIS_WIFI_1415,Ouvert,green,2.33133881945,48.8343139348
PARIS_WIFI_1417,Ouvert,green,2.32684914787,48.8323155292
PARIS_WIFI_1501,Ouvert,green,2.28655696033,48.8502174332
PARIS_WIFI_1502,Ouvert,green,2.2786884831,48.8402044224
PARIS_WIFI_1505,Ouvert,green,2.30351069173,48.8368604953
PARIS_WIFI_1511,Ouvert,green,2.29503777703,48.8519727437
PARIS_WIFI_1525,Ouvert,green,2.29770946864,48.8425017015
PARIS_WIFI_1610,Ouvert,green,2.29753627614,48.8647617535
PARIS_WIFI_1612,Ouvert,green,2.28089719504,48.876365342
PARIS_WIFI_1614,Ouvert,green,2.25574298787,48.8354956878
PARIS_WIFI_1616,Ouvert,green,2.25274577427,48.8435567217
PARIS_WIFI_1704,Ouvert,green,2.31906152923,48.894744465
PARIS_WIFI_1711,Ouvert,green,2.31583079641,48.8881843652
PARIS_WIFI_1712,Ouvert,green,2.29778636186,48.8890312183
PARIS_WIFI_1801,Ouvert,green,2.34447344899,48.8916249709
PARIS_WIFI_1804,Ouvert,green,2.33622999174,48.8997725821
PARIS_WIFI_1809,Ouvert,green,2.34731675416,48.890066157
PARIS_WIFI_1901,Ouvert,green,2.40657676262,48.8789311191
PARIS_WIFI_1903,Ouvert,green,2.38310197207,48.884900839
PARIS_WIFI_2001,Ouvert,green,2.41025298482,48.8568712954
PARIS_WIFI_2003,Ouvert,green,2.40114859676,48.8532450711
PARIS_WIFI_2005,Ouvert,green,2.39280865808,48.8659535456
PARIS_WIFI_2009,Ouvert,green,2.4014187764,48.8544516046
PARIS_WIFI_2015,Ouvert,green,2.39574917777,48.8719750484
PARIS_WIFI_2016,Ouvert,green,2.40303198521,48.8599293655
PARIS_WIFI_2017,Ouvert,green,2.38416603541,48.871266647
PARIS_WIFI_2021,Ouvert,green,2.40515769883,48.8605090138
PARIS_WIFI_2027,Ouvert,green,2.40471883824,48.8492393403
PARIS_WIFI_2028,Ouvert,green,2.40276888504,48.860169621
PARIS_WIFI_0201,Ouvert,green,2.34048567818,48.8664567425
PARIS_WIFI_0103,Ouvert,green,2.34723634204,48.8619198724
PARIS_WIFI_0106,Ouvert,green,2.34119859233,48.8619291267
PARIS_WIFI_0202,Ouvert,green,2.34042661469,48.8668791528
PARIS_WIFI_0203,Ouvert,green,2.35047378325,48.8651026445
PARIS-WIFI_0301,Ouvert,green,2.36006963485,48.8635983577
PARIS-WIFI_0304,Ouvert,green,2.36733647836,48.8562190744
PARIS_WIFI_0401,Ouvert,green,2.35963312761,48.8548403657
PARIS_WIFI_0402,Ouvert,green,2.35294159447,48.8563130721
PARIS_WIFI_0403,Ouvert,green,2.35911983524,48.85342594
PARIS_WIFI_0407,Ouvert,green,2.35837367756,48.8582585629
PARIS_WIFI_0413,Ouvert,green,2.35292408666,48.8566224181
PARIS_WIFI_0414,Ouvert,green,2.35562940625,48.8561904106
PARIS_WIFI_0415,Ouvert,green,2.36611377935,48.854818574
PARIS_WIFI_0420,Ouvert,green,2.35283218353,48.8549201253
PARIS_WIFI_0508,Ouvert,green,2.3445623547,48.8461888914
PARIS_WIFI_0511,Ouvert,green,2.35036067276,48.847943173
PARIS_WIFI_0602,Ouvert,green,2.33259291459,48.850533618
PARIS_WIFI_0605,Ouvert,green,2.32750778782,48.8434096279
PARIS_WIFI_0703,Ouvert,green,2.31269784405,48.8619652009
PARIS_WIFI_0704,Ouvert,green,2.32049250412,48.8514242095
PARIS_WIFI_0708,Ouvert,green,2.30145316263,48.8547368949
PARIS_WIFI_0707,Ouvert,green,2.29351511512,48.8570525297
PARIS_WIFI_0711,Ouvert,green,2.32243959128,48.8618171511
PARIS_WIFI_0903,Ouvert,green,2.34051497574,48.8733770559
PARIS_WIFI_1009,Ouvert,green,2.36409689414,48.881284516
PARIS_WIFI_1015,Ouvert,green,2.35383424618,48.8755139599
PARIS_WIFI_1204,Ouvert,green,2.39753934157,48.8425390797
PARIS_WIFI_1208,Ouvert,green,2.38956187083,48.84244959
PARIS_WIFI_1308,Ouvert,green,2.37022270255,48.8201114852
PARIS_WIFI_1310,Ouvert,green,2.37750748865,48.8281148017
PARIS_WIFI_1317,Ouvert,green,2.36137387685,48.8226888657
PARIS_WIFI_1318,Ouvert,green,2.38371764098,48.8268170682
PARIS_WIFI_1319,Ouvert,green,2.36080187532,48.8274462361
PARIS_WIFI_1322,Ouvert,green,2.37588042298,48.8360238698
PARIS_WIFI_1325,Ouvert,green,2.36248278396,48.8204545688
PARIS_WIFI_1328,Ouvert,green,2.3696178012,48.8311609017
PARIS_WIFI_1333,Ouvert,green,2.34550871693,48.8183029969
PARIS_WIFI_1401,Ouvert,green,2.32583766482,48.8337637004
PARIS_WIFI_1403,Ouvert,green,2.32182737274,48.8389903422
PARIS_WIFI_1409,Ouvert,green,2.3268360441,48.8329943705
PARIS_WIFI_1410,Ouvert,green,2.3258030796,48.8355887617
PARIS_WIFI_1418,Ouvert,green,2.30370640955,48.826321615
PARIS_WIFI_1513,Ouvert,green,2.29140656377,48.8456076717
PARIS_WIFI_1519,Ouvert,green,2.29993651073,48.8316213147
PARIS_WIFI_1522,Ouvert,green,2.30523497042,48.8422165011
PARIS_WIFI_1601,Ouvert,green,2.26352188132,48.8420789889
PARIS_WIFI_1615,Ouvert,green,2.26485316539,48.8783397088
PARIS_WIFI_1811,Ouvert,green,2.3536543818,48.8863398794
PARIS_WIFI_1814,Ouvert,green,2.33763895219,48.8881440578
PARIS_WIFI_1907,Ouvert,green,2.39731691086,48.8793930038
PARIS_WIFI_1909,Ouvert,green,2.37486365122,48.8907838617
PARIS_WIFI_1911,Ouvert,green,2.37655023945,48.8804358131
PARIS_WIFI_1916,Ouvert,green,2.38051197939,48.8766451041
PARIS_WIFI_1917,Ouvert,green,2.38215797007,48.8820584099
PARIS_WIFI_1921,Ouvert,green,2.39732295941,48.8879523039
PARIS_WIFI_1922,Ouvert,green,2.37725935773,48.8856265642
PARIS_WIFI_2007,Ouvert,green,2.41152468209,48.8604025448
PARIS_WIFI_2019,Ouvert,green,2.38493293559,48.8717180881
PARIS_WIFI_2029,Ouvert,green,2.40073947103,48.8528037166
PARIS_WIFI_2030,Ouvert,green,2.40754829075,48.8551678359
PARIS_WIFI_0107,Ouvert,green,2.34451982767,48.8625182605
PARIS-WIFI_0302,Ouvert,green,2.36151323873,48.8639892734
PARIS-WIFI_0308,Ouvert,green,2.36345781161,48.8581883345
PARIS_WIFI_0404,Ouvert,green,2.36164893564,48.8570464376
PARIS_WIFI_0410,Ouvert,green,2.35219155353,48.8566506649
PARIS_WIFI_0411,Ouvert,green,2.35254222134,48.8559278501
PARIS_WIFI_0421,Ouvert,green,2.35160666254,48.8520265824
PARIS_WIFI_0422,Ouvert,green,2.35083377748,48.8523605922
PARIS_WIFI_0424,Ouvert,green,2.34926998236,48.857798215
PARIS_WIFI_0501,Ouvert,green,2.36180002502,48.8426080734
PARIS_WIFI_0502,Ouvert,green,2.35107795849,48.846365025
PARIS_WIFI_0503,Ouvert,green,2.3450542027,48.8519753252
PARIS_WIFI_0510,Ouvert,green,2.35322782433,48.8454585599
PARIS_WIFI_0601,Ouvert,green,2.32757593658,48.8481067919
PARIS_WIFI_0604,Ouvert,green,2.33423591998,48.8538430122
PARIS_WIFI_0701,Ouvert,green,2.30897157828,48.8580657972
PARIS_WIFI_0806,Ouvert,green,2.30476646153,48.8760261015
PARIS_WIFI_0901,Ouvert,green,2.33700792218,48.8809864415
PARIS_WIFI_0905,Ouvert,green,2.34043736171,48.8726046608
PARIS_WIFI_0907,Ouvert,green,2.34426302269,48.8823857225
PARIS_WIFI_0910,Ouvert,green,2.33273623382,48.8777898806
PARIS_WIFI_1006,Ouvert,green,2.36111073837,48.8749779005
PARIS_WIFI_1007,Ouvert,green,2.35741545481,48.8718920376
PARIS_WIFI_1008,Ouvert,green,2.368701201,48.8817813577
PARIS_WIFI_1010,Ouvert,green,2.35499028107,48.8756482958
PARIS_WIFI_1202,Ouvert,green,2.38921749932,48.8420310646
PARIS_WIFI_1203,Ouvert,green,2.37778397079,48.8459887529
PARIS_WIFI_1209,Ouvert,green,2.41164069329,48.8423080129
PARIS_WIFI_1210,Ouvert,green,2.36970653838,48.8465186329
PARIS_WIFI_1213,Ouvert,green,2.3882525404,48.8428030509
PARIS_WIFI_1219,Ouvert,green,2.38324488741,48.8356171681
PARIS_WIFI_1226,Ouvert,green,2.44240464406,48.8380208889
PARIS_WIFI_1301,Ouvert,green,2.34197530835,48.8273152728
PARIS_WIFI_1315,Ouvert,green,2.35555838843,48.8322884895
PARIS_WIFI_1323,Ouvert,green,2.36082009363,48.8319309821
PARIS_WIFI_1331,Ouvert,green,2.34858152995,48.8316476174
PARIS_WIFI_1332,Ouvert,green,2.3457034027,48.818991525
PARIS_WIFI_1402,Ouvert,green,2.3118052032,48.8311882258
PARIS_WIFI_1404,Ouvert,green,2.31984525997,48.8315427926
PARIS_WIFI_1414,Ouvert,green,2.32586240105,48.831862258
PARIS_WIFI_1504,Ouvert,green,2.30363947168,48.8369605591
PARIS_WIFI_1508,Ouvert,green,2.27569449598,48.8324794765
PARIS_WIFI_1512,Ouvert,green,2.29995883683,48.8412822405
PARIS_WIFI_1520,Ouvert,green,2.30020209679,48.83243922
PARIS_WIFI_1524,Ouvert,green,2.29596326621,48.8424858587
PARIS_WIFI_1602,Ouvert,green,2.28497065366,48.8618887625
PARIS_WIFI_1607,Ouvert,green,2.27660235833,48.8639467742
PARIS_WIFI_1608,Ouvert,green,2.2808294266,48.855352885
PARIS_WIFI_1701,Ouvert,green,2.32207522384,48.8843377497
PARIS_WIFI_1703,Ouvert,green,2.30326109484,48.8885022915
PARIS_WIFI_1706,Ouvert,green,2.32181582732,48.8844906868
PARIS_WIFI_1709,Ouvert,green,2.32689511653,48.894926851
PARIS_WIFI_1710,Ouvert,green,2.32451308975,48.8940822582
PARIS_WIFI_1713,Ouvert,green,2.28216255857,48.8824673404
PARIS_WIFI_1714,Ouvert,green,2.32515415069,48.8873605486
PARIS_WIFI_1815,Ouvert,green,2.36290023208,48.8890069822
PARIS_WIFI_1910,Ouvert,green,2.38204533342,48.8828087769
PARIS_WIFI_1915,Ouvert,green,2.38843193003,48.8797740328
PARIS_WIFI_1918,Ouvert,green,2.38081951319,48.8778887353
PARIS_WIFI_1919,Ouvert,green,2.37748616877,48.8807564883
PARIS_WIFI_1920,Ouvert,green,2.37450411157,48.899255878
PARIS_WIFI_2002,Ouvert,green,2.38524186333,48.870136002
PARIS_WIFI_2008,Ouvert,green,2.41175830769,48.8590675435
PARIS_WIFI_2010,Ouvert,green,2.38780028028,48.8658868503
PARIS_WIFI_2020,Ouvert,green,2.40617323444,48.8753754756
PARIS_WIFI_2022,Ouvert,green,2.40605196945,48.8577072171
PARIS_WIFI_2023,Ouvert,green,2.40025160046,48.8651164798
PARIS_WIFI_1109,Ouvert,green,2.37848362886,48.8612632915
Centre de premier Accueil Humanitaire,Ouvert,green,2.3559612,48.8986499
DEMIE 75 (Dispositif d'évaluation des mineurs isolés étrangers),Fermé,red,2.378940000000057,48.86870529999999
APTM,Fermé,red,2.3687764000000016,48.847117
Association d'Assistance Scolaire Linguistique et Culturelle (ASLC),Fermé,red,2.373316599999953,48.87212739999999
SOS Racisme,Fermé,red,2.3722102,48.8871208
Coordination de l'Accueil des Familles Demandeuses d'Asile (CAFDA),Fermé,red,2.358616799999936,48.8805775
Le Kiosque,Modification,orange,2.364143,48.8799556
Boutique de Solidarité - Secours Populaire,Fermé,red,2.3699222999999847,48.8695922
Ressourcerie l'Interloque 18ème,Ouvert,green,2.3406016,48.8927342
Ressourcerie l'Interloque,Ouvert,green,2.3419247,48.8918036
Boutique Coup de Main Saint-Blaise,Fermé,red,2.4084111,48.8572183
Vestiboutique et vestiaire femmes Maubeuge,Fermé,red,2.3436029,48.8774332
Vestiboutique et écrivain public Albert-Thomas,Fermé,red,2.3625887000000603,48.87011629999999
Baby Boutique,Fermé,red,2.3623968,48.8699235
Vestiboutique Charenton,Fermé,red,2.3780063,48.8474442
Le magasin d'Emmaüs Défi à Riquet,Fermé,red,2.372039099999938,48.8892654
Vestiaire - Unité locale du 17e,Fermé,red,2.315713,48.88345899999999
Vestiaire Croix-Rouge Paris 13,Fermé,red,2.3545071999999436,48.831967
Musée Cognacq-Jay,Fermé,red,2.3614552,48.8582729
Musée Carnavalet,Fermé,red,2.3647272,48.8581977
Maison De Victor Hugo,Fermé,red,2.3662097,48.8548976
Musée Zadkine,Fermé,red,2.3338336,48.8430309
Musée Cernuschi,Fermé,red,2.312489,48.8796312
Petit Palais,Fermé,red,2.3138045,48.865895
Musée De La Vie Romantique,Fermé,red,2.3334477,48.8810988
Musée Bourdelle,Fermé,red,2.3167259,48.8431843
Musée de la libération de Paris - Musée Jean-Moulin - Musée du Général Leclerc,Fermé,red,2.3323093999999855,48.83426859999999
Musée D'Art Moderne De La Ville De Paris,Fermé,red,2.2973821,48.8645107
Maison De Balzac,Fermé,red,2.2807446,48.8551734
Crypte Archéologique Du Parvis Notre-Dame,Fermé,red,2.3486553,48.85292099999999
Palais Galliera,Fermé,red,2.2966578,48.865475
Catacombes De Paris,Fermé,red,2.3324228,48.8338325
Gare de Paris-Bercy,Fermé,red,2.384335,48.8384185
Gare de l'Est,Fermé,red,2.358863,48.8763104
Les Halles,Fermé,red,2.3447356,48.8623348
Restaurant Solidaire Baudricourt,Fermé,red,2.3652766999999812,48.8278896
CHU Crimée,Ouvert,green,2.3783985,48.8898938
Pôle urgence Coeur des Haltes ,Ouvert,green,2.3871637,48.8585872
"CHU ""Plurielles""",Ouvert,green,2.3427645,48.8766073
Bus vers Centre d'hébergement et d'assistance aux personnes sans abri à Nanterre  (CHAPSA),Fermé,red,2.3887218,48.8989919
La Halte Femmes,Ouvert,green,2.3803754,48.8446987
Centre d'Hébergement de Stabilisation Valgiros,Ouvert,green,2.3062784,48.841211
CSAPA Sleep-in,Fermé,red,2.3629166,48.8901868
Le Refuge (association d'aide aux jeunes victimes d'homophobie),Fermé,red,2.3687661,48.8680425
Entreprise d'insertion Bat'ire,Fermé,red,2.3477222,48.8653797
Travail au Clair - La Clairière,Fermé,red,2.3469529000000193,48.866345
Espace Parisien pour l'Insertion (EPI) du 10ème,Fermé,red,2.363836699999979,48.8829441
Espace Parisien pour l'Insertion (EPI) du 13ème - site Italie,Fermé,red,2.359671800000001,48.81940229999999
Point Paris Emploi (PPE) 10ème,Fermé,red,2.3640014000000065,48.8813001
Mission Locale - Site Hauts de Ménil',Fermé,red,2.3957554,48.8720021
Mission Locale - Site Paris Est,Fermé,red,2.3866217,48.8861019
Mission Locale - Site Paris Avenir,Fermé,red,2.3227819,48.8279414
Mission Locale - Site Paris Milord,Fermé,red,2.3292426,48.8962181
Mission Locale - Site Paris Soleil,Fermé,red,2.3639212,48.8329569
Mission Locale - Site Paris Centre,Fermé,red,2.3890224,48.8512338
Solidarités nouvelles face au chômage (Paris 15e),Fermé,red,2.2978861,48.8480534
Solidarités nouvelles face au chômage (Paris 14e),Fermé,red,2.304723299999978,48.82612770000001
Solidarités nouvelles face au chômage (Paris 13e),Fermé,red,2.353032100000064,48.8280347
Solidarités nouvelles face au chômage (Paris 11e),Fermé,red,2.3785497000000078,48.8612032
Point Paris Emploi (PPE) 19ème,Fermé,red,2.3685451000000057,48.8866612
Sanisette,Ouvert,green,2.34220322324,48.8623402992
Sanisette,Ouvert,green,2.34323594839,48.8687490656
Sanisette,Ouvert,green,2.36630552167,48.8635546297
Sanisette,Ouvert,green,2.3515561,48.8644379
Sanisette,Ouvert,green,2.36041970739,48.8553031934
Sanisette,Ouvert,green,2.35131574473,48.8607904234
Sanisette,Ouvert,green,2.35117112561,48.8605238452
Sanisette,Ouvert,green,2.360577699999999,48.8405894
Sanisette,Ouvert,green,2.33873159224,48.8392007135
Sanisette,Ouvert,green,2.35207299082,48.8431229675
Sanisette,Ouvert,green,2.34869156688,48.8416407744
Sanisette,Ouvert,green,2.36039470127,48.8443966009
Sanisette,Ouvert,green,2.3407775,48.8472064
Sanisette,Ouvert,green,2.3283276,48.8472951
Sanisette,Ouvert,green,2.31080862005,48.8624769891
Sanisette,Ouvert,green,2.29589590523,48.8551043871
Sanisette,Ouvert,green,2.32305465373,48.8498348758
Sanisette,Ouvert,green,2.30236199297,48.8746134859
Sanisette,Ouvert,green,2.33854479898,48.8721336811
Sanisette,Ouvert,green,2.34743317135,48.8834206143
Sanisette,Ouvert,green,2.37008390154,48.8779817762
Sanisette,Ouvert,green,2.36546558631,48.8718385288
Sanisette,Ouvert,green,2.35053422485,48.8822446249
Sanisette,Ouvert,green,2.3688095,48.8833554
Sanisette,Ouvert,green,2.37744419191,48.8444926866
Sanisette,Ouvert,green,2.37108368746,48.84923929
Sanisette,Ouvert,green,2.367821,48.8461928
Sanisette,Ouvert,green,2.37654775403,48.8461125674
Sanisette,Ouvert,green,2.34942543957,48.8294847116
Sanisette,Ouvert,green,2.3752249,48.8300715
Sanisette,Ouvert,green,2.36175466277,48.8396342754
Sanisette,Ouvert,green,2.35616417308,48.8325839304
Sanisette,Ouvert,green,2.3267307,48.8404666
Sanisette,Ouvert,green,2.33948840256,48.8245410206
Sanisette,Ouvert,green,2.32316498865,48.8421757132
Sanisette,Ouvert,green,2.33680389185,48.8347355513
Sanisette,Ouvert,green,2.32414276007,48.8348792304
Sanisette,Ouvert,green,2.31580729655,48.8252447717
Sanisette,Ouvert,green,2.32111692411,48.8243414263
Sanisette,Ouvert,green,2.305654036,48.8279445001
Sanisette,Ouvert,green,2.32630790325,48.8296102487
Sanisette,Ouvert,green,2.2914579762,48.8394184396
Sanisette,Ouvert,green,2.27798287788,48.838073564
Sanisette,Ouvert,green,2.30028097537,48.8409059865
Sanisette,Ouvert,green,2.30195906663,48.8396660531
Sanisette,Ouvert,green,2.284141152,48.8346285188
Sanisette,Ouvert,green,2.29512257485,48.8510453349
Sanisette,Ouvert,green,2.28638203361,48.8621579607
Sanisette,Ouvert,green,2.26908155009,48.8459388963
Sanisette,Ouvert,green,2.316005099999999,48.8885645
Sanisette,Ouvert,green,2.2956124,48.8813787
Sanisette,Ouvert,green,2.35340146335,48.8856323541
Sanisette,Ouvert,green,2.358711599999999,48.8976154
Sanisette,Ouvert,green,2.3618395,48.89192939999999
Sanisette,Ouvert,green,2.35627051467,48.8859575419
Sanisette,Ouvert,green,2.36929812409,48.898773308
Sanisette,Ouvert,green,2.3532934,48.8842625
Sanisette,Ouvert,green,2.39255357281,48.877068392
Sanisette,Ouvert,green,2.37394970898,48.8784476343
Sanisette,Ouvert,green,2.37826222864,48.8786193513
Sanisette,Ouvert,green,2.38070265061,48.8894777633
Sanisette,Ouvert,green,2.3933313,48.8892282
Sanisette,Ouvert,green,2.3776802,48.8866811
Sanisette,Ouvert,green,2.40008152756,48.8554039905
Sanisette,Ouvert,green,2.38338973341,48.8667550376
Sanisette,Ouvert,green,2.41523391124,48.8553275619
Sanisette,Ouvert,green,2.40925809907,48.8533162776
Sanisette,Ouvert,green,2.4115725,48.8538696
Sanisette,Ouvert,green,2.3897774464,48.8662840548
Sanisette,Ouvert,green,2.38988864716,48.8684257357
Sanisette,Ouvert,green,2.39982370311,48.8649204146
Sanisette,Ouvert,green,2.34737781833,48.8580216455
Sanisette,Ouvert,green,2.34647836638,48.8602837777
Sanisette,Ouvert,green,2.35014625048,48.8683443637
Sanisette,Ouvert,green,2.3477196,48.8582247
Sanisette,Ouvert,green,2.34062639783,48.8689183629
Sanisette,Ouvert,green,2.34845002883,48.8681621896
Sanisette,Ouvert,green,2.33834576652,48.8694908822
Sanisette,Ouvert,green,2.35602360649,48.85415067
Sanisette,Ouvert,green,2.35581305144,48.8578325126
Sanisette,Ouvert,green,2.3497975967,48.8582009701
Sanisette,Ouvert,green,2.35487219277,48.846225219
Sanisette,Ouvert,green,2.35354364655,48.8374184706
Sanisette,Ouvert,green,2.33459026841,48.8527219832
Sanisette,Ouvert,green,2.32518012982,48.8516268274
Sanisette,Ouvert,green,2.30402816181,48.8792272013
Sanisette,Ouvert,green,2.31276020043,48.8694709544
Sanisette,Ouvert,green,2.32045168942,48.8743584041
Sanisette,Ouvert,green,2.31511516886,48.8754179857
Sanisette,Ouvert,green,2.33916330241,48.8820890178
Sanisette,Ouvert,green,2.3337148,48.8837432
Sanisette,Ouvert,green,2.33178483408,48.883981308
Sanisette,Ouvert,green,2.3608647,48.8760754
Sanisette,Ouvert,green,2.36046358018,48.8757495125
Sanisette,Ouvert,green,2.36817760919,48.8762387309
Sanisette,Ouvert,green,2.3551008979,48.8771534015
Sanisette,Ouvert,green,2.34961000749,48.8832700898
Sanisette,Ouvert,green,2.36273382814,48.8745920335
Sanisette,Ouvert,green,2.35323834994,48.8818143971
Sanisette,Ouvert,green,2.372684,48.8549812
Sanisette,Ouvert,green,2.393718343,48.8521369726
Sanisette,Ouvert,green,2.3810941,48.8569959
Sanisette,Ouvert,green,2.3802426629,48.8583131762
Sanisette,Ouvert,green,2.38403796052,48.8504315681
Sanisette,Ouvert,green,2.3925081,48.8390289
Sanisette,Ouvert,green,2.41126940318,48.8461981551
Sanisette,Ouvert,green,2.4040143783,48.8332259474
Sanisette,Ouvert,green,2.40188520758,48.84368377
Sanisette,Ouvert,green,2.40747877396,48.8471076938
Sanisette,Ouvert,green,2.384916432,48.8455922991
Sanisette,Ouvert,green,2.37821862947,48.8396213356
Sanisette,Ouvert,green,2.3718722,48.8475464
Sanisette,Ouvert,green,2.44113275967,48.8441411997
Sanisette,Ouvert,green,2.34772693476,48.8199697602
Sanisette,Ouvert,green,2.36530148206,48.8293762307
Sanisette,Ouvert,green,2.36896816751,48.8297799548
Sanisette,Ouvert,green,2.3448418,48.8313855
Sanisette,Ouvert,green,2.36878261008,48.8352392611
Sanisette,Ouvert,green,2.32233836209,48.8381106104
Sanisette,Ouvert,green,2.31779797752,48.8354861014
Sanisette,Ouvert,green,2.31127922285,48.8249885208
Sanisette,Ouvert,green,2.3247785,48.83233609999999
Sanisette,Ouvert,green,2.33094074871,48.8323424466
Sanisette,Ouvert,green,2.30534375195,48.826231662
Sanisette,Ouvert,green,2.33211877111,48.8348104903
Sanisette,Ouvert,green,2.32797958689,48.8289648283
Sanisette,Ouvert,green,2.31095990545,48.84733414
Sanisette,Ouvert,green,2.29680197246,48.8371892955
Sanisette,Ouvert,green,2.29341777565,48.8360452422
Sanisette,Ouvert,green,2.29213723446,48.8425893817
Sanisette,Ouvert,green,2.29047953946,48.8447973119
Sanisette,Ouvert,green,2.30189793713,48.8455266144
Sanisette,Ouvert,green,2.31694564817,48.8465213699
Sanisette,Ouvert,green,2.2898684072,48.8555327403
Sanisette,Ouvert,green,2.25861985018,48.8383970816
Sanisette,Ouvert,green,2.26307813413,48.8398553776
Sanisette,Ouvert,green,2.27789099265,48.8508303988
Sanisette,Ouvert,green,2.2559870395,48.8458131187
Sanisette,Ouvert,green,2.25717759424,48.8484437891
Sanisette,Ouvert,green,2.25461090743,48.8412299523
Sanisette,Ouvert,green,2.32634362788,48.8856593152
Sanisette,Ouvert,green,2.34515427741,48.8890639193
Sanisette,Ouvert,green,2.3398614,48.9006627
Sanisette,Ouvert,green,2.35883888856,48.8950895579
Sanisette,Ouvert,green,2.34600060986,48.8957747391
Sanisette,Ouvert,green,2.3446622105,48.8844921121
Sanisette,Ouvert,green,2.34380740461,48.9008257902
Sanisette,Ouvert,green,2.32896961728,48.8842143528
Sanisette,Ouvert,green,2.34396370204,48.899194262
Sanisette,Ouvert,green,2.3673810476,48.8842570173
Sanisette,Ouvert,green,2.40040879932,48.8806802415
Sanisette,Ouvert,green,2.38142198169,48.883028778
Sanisette,Ouvert,green,2.37036598805,48.8857730297
Sanisette,Ouvert,green,2.38565335157,48.8973126836
Sanisette,Ouvert,green,2.38442043788,48.8793838919
Sanisette,Ouvert,green,2.40935900155,48.8706908077
Sanisette,Ouvert,green,2.40991820214,48.8557718796
Sanisette,Ouvert,green,2.40898871152,48.852719661
Sanisette,Ouvert,green,2.3920523226,48.871931094
Sanisette,Ouvert,green,2.348837232,48.8598552359
Sanisette,Ouvert,green,2.34653567272,48.8579704354
Sanisette,Ouvert,green,2.35096273778,48.8636624932
Sanisette,Ouvert,green,2.34957136375,48.8667935445
Sanisette,Ouvert,green,2.34382098738,48.8674378447
Sanisette,Ouvert,green,2.35350208429,48.8694083017
Sanisette,Ouvert,green,2.36070068743,48.8600598633
Sanisette,Ouvert,green,2.36013286512,48.8649756655
Sanisette,Ouvert,green,2.35936485767,48.8627443804
Sanisette,Ouvert,green,2.34979645991,48.8564861574
Sanisette,Ouvert,green,2.36835669665,48.8526426927
Sanisette,Ouvert,green,2.3494295,48.85403110000001
Sanisette,Ouvert,green,2.3562873,48.84115689999999
Sanisette,Ouvert,green,2.35118650653,48.8379520924
Sanisette,Ouvert,green,2.33232860028,48.8412025712
Sanisette,Ouvert,green,2.33099520431,48.8544281281
Sanisette,Ouvert,green,2.29250251202,48.8582136973
Sanisette,Ouvert,green,2.30508321089,48.8543011743
Sanisette,Ouvert,green,2.30122008396,48.8688403461
Sanisette,Ouvert,green,2.30018344606,48.8651933385
Sanisette,Ouvert,green,2.34349779975,48.8827090841
Sanisette,Ouvert,green,2.34334023734,48.8826756157
Sanisette,Ouvert,green,2.34143291584,48.8823161493
Sanisette,Ouvert,green,2.36958303183,48.8723150752
Sanisette,Ouvert,green,2.3544115,48.8705979
Sanisette,Ouvert,green,2.36659750587,48.8700278994
Sanisette,Ouvert,green,2.37766692086,48.8541358706
Sanisette,Ouvert,green,2.38912226664,48.859234607
Sanisette,Ouvert,green,2.39630211203,48.8495778168
Sanisette,Ouvert,green,2.37608280409,48.8648972177
Sanisette,Ouvert,green,2.37935147554,48.8570427775
Sanisette,Ouvert,green,2.36937734153,48.8658415599
Sanisette,Ouvert,green,2.39245136818,48.857493703
Sanisette,Ouvert,green,2.3692517539,48.845288881
Sanisette,Ouvert,green,2.3954807,48.8472808
Sanisette,Ouvert,green,2.3727636369,48.8223447327
Sanisette,Ouvert,green,2.36512630736,48.8337173082
Sanisette,Ouvert,green,2.3662547,48.8226278
Sanisette,Ouvert,green,2.34180648779,48.8266907029
Sanisette,Ouvert,green,2.3512823,48.8267084
Sanisette,Ouvert,green,2.35653249546,48.8280565621
Sanisette,Ouvert,green,2.36158054833,48.8327135265
Sanisette,Ouvert,green,2.36433399581,48.8430740443
Sanisette,Ouvert,green,2.36398233556,48.8195836923
Sanisette,Ouvert,green,2.33383417366,48.8303689517
Sanisette,Ouvert,green,2.32017895944,48.831657966
Sanisette,Ouvert,green,2.34180576785,48.8382702261
Sanisette,Ouvert,green,2.32885652026,48.8226298504
Sanisette,Ouvert,green,2.330892399999999,48.83310590000001
Sanisette,Ouvert,green,2.31141918096,48.8325740517
Sanisette,Ouvert,green,2.30336605485,48.8282841151
Sanisette,Ouvert,green,2.29183408716,48.8309615645
Sanisette,Ouvert,green,2.3214161,48.8399796
Sanisette,Ouvert,green,2.30273348541,48.8319295622
Sanisette,Ouvert,green,2.28255646788,48.8390921089
Sanisette,Ouvert,green,2.30982319251,48.8364136137
Sanisette,Ouvert,green,2.31101424775,48.844736498
Sanisette,Ouvert,green,2.30259575059,48.8356684765
Sanisette,Ouvert,green,2.28169181419,48.8362409445
Sanisette,Ouvert,green,2.29218246244,48.8453782111
Sanisette,Ouvert,green,2.26053361093,48.8483316189
Sanisette,Ouvert,green,2.27958777194,48.8754279615
Sanisette,Ouvert,green,2.29374015525,48.8683025332
Sanisette,Ouvert,green,2.25617823875,48.8422349218
Sanisette,Ouvert,green,2.30420618261,48.8840275667
Sanisette,Ouvert,green,2.30346768685,48.8905508133
Sanisette,Ouvert,green,2.31429354624,48.8948461073
Sanisette,Ouvert,green,2.32804076739,48.895835561
Sanisette,Ouvert,green,2.32718400877,48.8919370861
Sanisette,Ouvert,green,2.33522147941,48.8917888229
Sanisette,Ouvert,green,2.34974114956,48.8914363932
Sanisette,Ouvert,green,2.3521864294,48.8841038721
Sanisette,Ouvert,green,2.35486399619,48.8850281386
Sanisette,Ouvert,green,2.34053038252,48.8992899143
Sanisette,Ouvert,green,2.35515147711,48.884205159
Sanisette,Ouvert,green,2.3346274324,48.896429138
Sanisette,Ouvert,green,2.34444160503,48.901133035
Sanisette,Ouvert,green,2.3695646,48.8988831
Sanisette,Ouvert,green,2.39779898431,48.8755544143
Sanisette,Ouvert,green,2.3738943,48.88874190000001
Sanisette,Ouvert,green,2.38677478261,48.8989748409
Sanisette,Ouvert,green,2.38125082319,48.8778639152
Sanisette,Ouvert,green,2.38054129019,48.8762331619
Sanisette,Ouvert,green,2.4000912,48.8484718
Sanisette,Ouvert,green,2.38189800131,48.8683430107
Sanisette,Ouvert,green,2.4045172617,48.8570490165
Sanisette,Ouvert,green,2.34247230415,48.863547401
Sanisette,Ouvert,green,2.34183617987,48.8631566853
Sanisette,Ouvert,green,2.32934537933,48.8700582311
Sanisette,Ouvert,green,2.33066568733,48.8702743131
Sanisette,Ouvert,green,2.35039774649,48.8602128675
Sanisette,Ouvert,green,2.34398782402,48.8478120465
Sanisette,Ouvert,green,2.32653045058,48.8725278384
Sanisette,Ouvert,green,2.34551626208,48.8816653953
Sanisette,Ouvert,green,2.35617327983,48.8689996554
Sanisette,Ouvert,green,2.3656086,48.87020829999999
Sanisette,Ouvert,green,2.3612259,48.8711671
Sanisette,Ouvert,green,2.37097100542,48.8773676992
Sanisette,Ouvert,green,2.36399050058,48.8770143095
Sanisette,Ouvert,green,2.36364970349,48.8749245669
Sanisette,Ouvert,green,2.35137801617,48.8704916023
Sanisette,Ouvert,green,2.3634091433,48.8683953934
Sanisette,Ouvert,green,2.36970018791,48.8539831723
Sanisette,Ouvert,green,2.38355339048,48.8556437616
Sanisette,Ouvert,green,2.3893212175,48.8588174968
Sanisette,Ouvert,green,2.37905139141,48.8623006181
Sanisette,Ouvert,green,2.37266335235,48.8617407569
Sanisette,Ouvert,green,2.38095859967,48.8656969801
Sanisette,Ouvert,green,2.37952312143,48.864242083
Sanisette,Ouvert,green,2.39366320703,48.8495804477
Sanisette,Ouvert,green,2.37116053465,48.8696842376
Sanisette,Ouvert,green,2.3761963156,48.8717292324
Sanisette,Ouvert,green,2.39204037215,48.8405254287
Sanisette,Ouvert,green,2.41126547446,48.844093329
Sanisette,Ouvert,green,2.389842299999999,48.8386798
Sanisette,Ouvert,green,2.35780584951,48.8348054392
Sanisette,Ouvert,green,2.35309546711,48.8240656789
Sanisette,Ouvert,green,2.3575912199,48.8189769485
Sanisette,Ouvert,green,2.35845319705,48.8281983631
Sanisette,Ouvert,green,2.376734206,48.8282285074
Sanisette,Ouvert,green,2.35564596848,48.8379115964
Sanisette,Ouvert,green,2.35812679931,48.8239434465
Sanisette,Ouvert,green,2.3388733,48.8246331
Sanisette,Ouvert,green,2.31818116624,48.8238450194
Sanisette,Ouvert,green,2.29781054036,48.8428648453
Sanisette,Ouvert,green,2.28477482095,48.8465506878
Sanisette,Ouvert,green,2.28792008292,48.8490352799
Sanisette,Ouvert,green,2.30207203653,48.8478417928
Sanisette,Ouvert,green,2.29110456267,48.8572621108
Sanisette,Ouvert,green,2.29949868476,48.8331257229
Sanisette,Ouvert,green,2.27363259839,48.8476823115
Sanisette,Ouvert,green,2.28297085554,48.8811175902
Sanisette,Ouvert,green,2.31886670308,48.8894228236
Sanisette,Ouvert,green,2.3196575,48.8907888
Sanisette,Ouvert,green,2.3260456,48.88351249999999
Sanisette,Ouvert,green,2.3302750002,48.884382393
Sanisette,Ouvert,green,2.34273602653,48.8844550441
Sanisette,Ouvert,green,2.3530164563,48.8963596175
Sanisette,Ouvert,green,2.3494137,48.88822450000001
Sanisette,Ouvert,green,2.32593610572,48.888224506
Sanisette,Ouvert,green,2.35460972095,48.8904544454
Sanisette,Ouvert,green,2.32937581204,48.8978997141
Sanisette,Ouvert,green,2.33769098113,48.8990168529
Sanisette,Ouvert,green,2.3701265059,48.8991988465
Sanisette,Ouvert,green,2.33677389228,48.882567343
Sanisette,Ouvert,green,2.37566147354,48.8958345397
Sanisette,Ouvert,green,2.3753248,48.8875804
Sanisette,Ouvert,green,2.38345050145,48.8835019891
Sanisette,Ouvert,green,2.38101490179,48.8855238884
Sanisette,Ouvert,green,2.37896296772,48.8954953474
Sanisette,Ouvert,green,2.40258392612,48.8491004469
Sanisette,Ouvert,green,2.4021401807,48.8715541615
Sanisette,Ouvert,green,2.4146563,48.85825819999999
Sanisette,Ouvert,green,2.39595517104,48.8547611226
Sanisette,Ouvert,green,2.40102151007,48.8600157102
Sanisette,Ouvert,green,2.41224737255,48.8544550261
Sanisette,Ouvert,green,2.35020308502,48.8623131813
Sanisette,Ouvert,green,2.35161126083,48.8648280189
Sanisette,Ouvert,green,2.34365407443,48.8712998867
Sanisette,Ouvert,green,2.3525443675,48.866017922
Sanisette,Ouvert,green,2.36703242245,48.8611231272
Sanisette,Ouvert,green,2.35271771746,48.8630936107
Sanisette,Ouvert,green,2.3522490913,48.8655035113
Sanisette,Ouvert,green,2.36673549452,48.8499307054
Sanisette,Ouvert,green,2.35418309909,48.8567894255
Sanisette,Ouvert,green,2.35484617831,48.849330259
Sanisette,Ouvert,green,2.34004429125,48.8461292375
Sanisette,Ouvert,green,2.34280307367,48.8513882825
Sanisette,Ouvert,green,2.30105587551,48.8625217068
Sanisette,Ouvert,green,2.30321065908,48.8747742506
Sanisette,Ouvert,green,2.31808802785,48.8651488379
Sanisette,Ouvert,green,2.31016091273,48.8701413113
Sanisette,Ouvert,green,2.32703687989,48.8776056478
Sanisette,Ouvert,green,2.34685265093,48.8767420817
Sanisette,Ouvert,green,2.35586267389,48.875780706
Sanisette,Ouvert,green,2.37528177673,48.8734807411
Sanisette,Ouvert,green,2.36077777293,48.8683459405
Sanisette,Ouvert,green,2.3567228,48.8759148
Sanisette,Ouvert,green,2.3765168,48.8722065
Sanisette,Ouvert,green,2.3616456863,48.8781474157
Sanisette,Ouvert,green,2.35625135327,48.8757753953
Sanisette,Ouvert,green,2.364904399999999,48.8712689
Sanisette,Ouvert,green,2.3663763,48.86838989999999
Sanisette,Ouvert,green,2.38095648432,48.8571881529
Sanisette,Ouvert,green,2.36500326172,48.8662247816
Sanisette,Ouvert,green,2.38788033428,48.8532924467
Sanisette,Ouvert,green,2.38394554725,48.8586921502
Sanisette,Ouvert,green,2.38420732177,48.847134816
Sanisette,Ouvert,green,2.39353336243,48.8347382889
Sanisette,Ouvert,green,2.40466278548,48.8404563216
Sanisette,Ouvert,green,2.38031784261,48.8449844522
Sanisette,Ouvert,green,2.36458137343,48.8268340661
Sanisette,Ouvert,green,2.34636990605,48.8349615547
Sanisette,Ouvert,green,2.36901388481,48.8212404052
Sanisette,Ouvert,green,2.34433502149,48.8189867194
Sanisette,Ouvert,green,2.31505362284,48.8256858886
Sanisette,Ouvert,green,2.32627447599,48.8256936083
Sanisette,Ouvert,green,2.31456172274,48.8339254348
Sanisette,Ouvert,green,2.31610939765,48.8312560816
Sanisette,Ouvert,green,2.31642763034,48.8409122347
Sanisette,Ouvert,green,2.2976673,48.8530149
Sanisette,Ouvert,green,2.27762807252,48.8462434637
Sanisette,Ouvert,green,2.30356403712,48.8491847075
Sanisette,Ouvert,green,2.29798828688,48.8528463574
Sanisette,Ouvert,green,2.30633269023,48.8392330434
Sanisette,Ouvert,green,2.27548876659,48.851292682
Sanisette,Ouvert,green,2.26822808174,48.8623619639
Sanisette,Ouvert,green,2.26669903431,48.8571927967
Sanisette,Ouvert,green,2.29569743574,48.8749477124
Sanisette,Ouvert,green,2.29757004372,48.8888826761
Sanisette,Ouvert,green,2.29447373547,48.878920802
Sanisette,Ouvert,green,2.28595031112,48.8769298905
Sanisette,Ouvert,green,2.28601752975,48.8818841939
Sanisette,Ouvert,green,2.29436414579,48.8875400487
Sanisette,Ouvert,green,2.335334399999999,48.9004959
Sanisette,Ouvert,green,2.34590618688,48.8832470829
Sanisette,Ouvert,green,2.33826967804,48.8965489204
Sanisette,Ouvert,green,2.34445799674,48.8993882119
Sanisette,Ouvert,green,2.3587187,48.8846534
Sanisette,Ouvert,green,2.33689209089,48.893502449
Sanisette,Ouvert,green,2.37374993518,48.8881820312
Sanisette,Ouvert,green,2.36985563312,48.8933841338
Sanisette,Ouvert,green,2.3758969,48.8858441
Sanisette,Ouvert,green,2.39785967871,48.8838976231
Sanisette,Ouvert,green,2.37903396915,48.8888356217
Sanisette,Ouvert,green,2.37724299499,48.8909604073
Sanisette,Ouvert,green,2.38202690388,48.894741052
Sanisette,Ouvert,green,2.37033634348,48.8822137261
Sanisette,Ouvert,green,2.40898577792,48.8641209728
Sanisette,Ouvert,green,2.39471760215,48.8649497422
Sanisette,Ouvert,green,2.39820179353,48.8705858922
Sanisette,Ouvert,green,2.38975171918,48.8736801872
Sanisette,Ouvert,green,2.40077805546,48.8648794077
Sanisette,Ouvert,green,2.40698934293,48.8759443207
EPN - Espace Coworking Etudiants-entrepreneurs L'atelier des réseaux,Ouvert,green,2.3687004,48.8893704
Emmaüs Connect - Paris Nord,Fermé,red,2.372003,48.889517
L'EPOC ,Fermé,red,2.388919200000032,48.8871001
Association La Clepsydre,Ouvert,green,2.3721603,48.8823063
Le Passage,Fermé,red,2.3801674,48.8708256
Maison Médicale de Garde 14ème,Fermé,red,2.3103902999999946,48.8297403
Maison Médicale de Garde du 19ème,Fermé,red,2.3933865,48.8881386
Centre de santé Réaumur,Fermé,red,2.3473827,48.8673245
Centre de santé Yvonne Pouzin,Fermé,red,2.3570079999999507,48.8649032
Centre de santé Edison,Fermé,red,2.3610865,48.828768
PASS - Hôpital Cochin - Port-Royal - Tarnier,Fermé,red,2.3388689,48.8373986
Hôpital Bichat-Claude-Bernard - PASS,Fermé,red,2.331951,48.8987087
Hôpital Saint-Antoine - PASS,Fermé,red,2.382706,48.8491126
Maison médicale de garde du 12ème,Fermé,red,2.3923838000000615,48.8450688
CeGIDD Institut Alfred-Fournier 14ème ,Modification,orange,2.3388005,48.8321069
CMS (Centre Médico-Social) Ridder,Fermé,red,2.3118802,48.8311018
CMS (Centre Médico-Social) de Boursault,Fermé,red,2.318935099999976,48.885355
Centre médico-social du Figuier,Ouvert,green,2.3593234999999595,48.8536328
Hôpital Saint-Louis - PASS,Fermé,red,2.3698087,48.8732305
Hôpital Lariboisière - PASS,Fermé,red,2.3529307000000017,48.88249279999999
Institut Alfred-Fournier Chemin-Vert,Fermé,red,2.380196899999987,48.8606519
Centre de Santé médical et Dentaire Tisserand,Fermé,red,2.31823600000007,48.8311125
Hôpital Européen Georges-Pompidou - PASS,Fermé,red,2.274100800000042,48.8387325
Maison médicale de Garde du 16ème,Fermé,red,2.2968031,48.8675703
Centre Médical et Dentaire Marcadet,Fermé,red,2.3531147,48.8904536
Centre médico-dentaire Myrha,Fermé,red,2.3544711,48.8873911
Fondation Œuvre de la Croix Saint-Simon - Centre de Santé Médical et Dentaire,Fermé,red,2.3851772,48.8745567
Centre de Santé ADMS Crimée,Fermé,red,2.3894184,48.8799046
Maison de Santé Michelet,Fermé,red,2.3762637,48.8949858
Centre de Santé de Belleville / PASS,Fermé,red,2.391573699999981,48.8746863
Centre de Santé Polyvalent Haxo ,Fermé,red,2.4029740999999376,48.8746993
"Centre d'Accueil, d'Orientation et d'Accompagnement (CAOA)",Fermé,red,2.400662900000043,48.8418187
Hôpital Armand Trousseau - PASS,Fermé,red,2.4053997,48.8427138
Centre de Santé Polyvalent Olympiades ,Fermé,red,2.3682698000000073,48.8265833
Maison Médicale de Garde 13ème,Fermé,red,2.3682698000000073,48.8265833
Hôpital Robert-Debré - PASS,Fermé,red,2.4030290000000605,48.8784443
Hôpital Tenon - PASS,Fermé,red,2.4022032999999965,48.8662508
Centre de Santé Dentaire de la Porte-Montmartre,Fermé,red,2.3368576,48.8998607
Advocacy Paris,Fermé,red,2.3930218,48.8774725
Sanitaire Charles De Gaulle,Ouvert,green,-1.72749549896159,47.2111589065519
Sanitaire Eglise,Ouvert,green,-1.7203664999999546,47.16882589999999
Le Filon,Modification,orange,2.319287,48.891986
Bagagerie des Halles,Fermé,red,2.345603399999959,48.8587347
La boutique sans argent,Fermé,red,2.4003296999999293,48.8363768
Bagagerie Antigel,Fermé,red,2.293054999999981,48.839819
Centre Primo Levi,Fermé,red,2.372692499999971,48.8674309
ESI Halte aux Femmes Battues (HAFB),Fermé,red,2.4117654000000357,48.85506
Accueil de jour Altaïr SEA,Ouvert,green,2.3247559999999794,48.8885692
Espace Femmes,Fermé,red,2.3618698,48.8693486
EACP (Equipes d’Action contre le Proxénétisme),Fermé,red,2.3481467000000293,48.8626785
Mouvement pour la Réinsertion Sociale (MRS) 75,Fermé,red,2.3929335000000265,48.8554265
Accueil de jour Eller,Ouvert,green,2.326020999999969,48.8870298
Pôle Emploi espace liberté,Ouvert,green,2.368186899999955,48.8253202
Accueil de jour Fédération GAMS,Ouvert,green,2.406320899999969,48.85387279999999
Accueil de jour Elle’s Imagine’nt,Fermé,red,2.3246656999999686,48.82428179999999
Le Planning Familial - Centre Vivienne,Fermé,red,2.3394883999999365,48.8674547
Le Planning Familial - Centre Masséna,Fermé,red,2.366501699999958,48.8215908
Le Planning Familial - Centre Hittorf,Fermé,red,2.35834090000003,48.8718836
La maison des Femmes de Paris,Fermé,red,2.3842021,48.8445976
Rajﬁre (Réseau pour l’autonomie des femmes immigrées et réfugiées),Fermé,red,2.3841046000000006,48.84465059999999
CAARUD EGO - Centre d'Accueil - Association Aurore,Fermé,red,2.3538245,48.88636539999999
CAARUD Kaléidoscope,Fermé,red,2.4010084000000234,48.87801409999999
Association Samantha KOLEVA,Ouvert,green,2.3471618999999464,48.89006759999999
CASODOM,Fermé,red,2.341334999999958,48.8621754
PASTT (Prévention Action Santé Travail pour les Transgenres),Fermé,red,2.349093400000015,48.8771096
ARDHIS,Fermé,red,2.3894919,48.8695883
L’association Valentin Haüy,Fermé,red,2.314095199999997,48.8477828
La Maison Béranger,Fermé,red,2.3640252000000146,48.8659419
Paris Ados Service,Fermé,red,2.3843276999999716,48.8847989
KIWANDA,Fermé,red,2.3890387000000146,48.8503396
Union générale des Vietnamiens en France,Fermé,red,2.3636189999999715,48.8522091
Association Franco Chinoise Pierre Ducerf,Fermé,red,2.354694399999971,48.8624755
Comité Contre l’Esclavage Moderne,Fermé,red,2.360418799999934,48.83196459999999
Association Inser-Asaf,Ouvert,green,2.389740999999958,48.88391379999999
