name,Fermeture_Estivale,colors,longitude,latitude
Caisse d'Allocations Familiales (CAF) de Corbeil-Essonnes,Ouvert,green,2.478976399999965,48.61065680000001
Secours populaire Français - Corbeil Essonnes et Environs,Ouvert,green,2.474495100000013,48.6102026
Carrefour des solidarités Epicerie Sociale,Fermé,red,2.08940419999999,48.6434733
La Clé Epicerie Sociale,Ouvert,green,2.299137900000005,48.68788379999999
Croix-Rouge Évry ,Ouvert,green,2.4529254000000265,48.62693119999999
Toilettes,Ouvert,green,2.2437188000000106,48.7118593
Vieux cimetière de Wissous,Ouvert,green,2.331291,48.728502
Cimetière municipal,Ouvert,green,2.3876227000000654,48.7108798
Centre commercial Cora,Ouvert,green,2.2775976000000355,48.72459629999999
Gare de Massy,Ouvert,green,2.261219399999959,48.72578910000001
WC,Ouvert,green,2.267484999999965,48.7468728
WC,Ouvert,green,2.328761399999962,48.7351417
RESF (Réseau Education Sans Frontières) Grigny,Fermé,red,2.3900232,48.65510159999999
La Cimade - Massy,Ouvert,green,2.274251999999933,48.7286708
LDH (Ligue des Droits de l'Homme et du Citoyen) Orsay,Ouvert,green,2.18898020000006,48.699248
Médiathèque de l'Agora,Modification,orange,2.429160599999932,48.6281025
Epicerie Sociale de Courcouronnes,Ouvert,green,2.418097,48.6285785
Croix-Rouge Corbeil,Ouvert,green,2.4753421,48.5946199
Croix-Rouge Etampes,Ouvert,green,2.1503767,48.4390071
Croix-Rouge Viry Chatillon,Ouvert,green,2.364763,48.674539
Croix-Rouge Saint-Germain-Lès-Arpajon,Ouvert,green,2.2531183,48.5921837
Epicerie Sociale de Savigny,Ouvert,green,2.3461437,48.67995699999999
Centre de distribution alimentaire Les Ulis (Croix-Rouge Vallées Bièvre Yvette),Ouvert,green,2.1694601,48.6855811
Secours catholique Ballancourt sur Essonne,Fermé,red,2.3865882,48.5255082
Secours populaire de Palaiseau / Villebon,Fermé,red,2.2412991,48.7120431
Secours populaire de Ris Orangis,Ouvert,green,2.4105092,48.6548941
Secours populaire  Etampes,Fermé,red,2.1503648,48.43913329999999
Secours populaire de Yerres,Ouvert,green,2.4885441,48.7130798
Secours populaire de Brunoy,Fermé,red,2.502016,48.698918
Croix-Rouge Limours,Ouvert,green,2.0807783,48.6413282
Croix-Rouge Les trois vallées,Ouvert,green,2.1254235,48.5532391
Croix-Rouge Les deux rivières,Ouvert,green,2.2970962,48.7375725
Epicerie sociale Val d'Orge,Ouvert,green,2.3370343,48.6597234
Centre IPC site de Corbeil-Essonnes / Bilan de santé,Fermé,red,2.4746494,48.6127253
Accueil de Jour Jean Marfaing,Ouvert,green,2.3721084,48.70092650000001
Accueil de jour Corbeil-Essonnes,Ouvert,green,2.4809213,48.6105502
Accueil de jour - Massy,Ouvert,green,2.271974,48.721158
Femmes Solidarité LEAO ,Ouvert,green,2.418406,48.6583666
Secours Catholique Corbeil-Essonnes,Ouvert,green,2.474506099999999,48.61248619999999
Secours Catholique Etampes,Modification,orange,2.1533032,48.43124900000001
Secours Catholique Grigny,Ouvert,green,2.3908098,48.6556515
Secours Catholique d'Orsay,Ouvert,green,2.1883238,48.6988783
Secours Catholique des Ulis,Modification,orange,2.170694999999999,48.68258399999999
Secours Catholique Dourdan,Ouvert,green,2.0092402,48.5295059
Secours Catholique Milly-la-Forêt,Fermé,red,2.466206,48.40139680000001
Secours Catholique Méréville,Fermé,red,2.0871946,48.3149165
Secours Catholique St-Michel-sur-Orge,Modification,orange,2.3217768,48.634587
CSAPA Arpajon,Ouvert,green,2.2413615,48.58522289999999
CSAPA Val d'Orge,Ouvert,green,2.3731274,48.69859169999999
P.E.R.E.N. (Point Ecoute Relais Essonne Nord),Ouvert,green,2.418406,48.6583666
ANTEA (Antenne Enfants et Adolescents) Athis-Mons,Ouvert,green,2.3932851,48.7116305
ANTEA (Antenne Enfants et Adolescents) Ris-Orangis,Ouvert,green,2.418406,48.6583666
Mission locale Sud Essonne,Ouvert,green,2.1515991,48.4307567
Mission locale Brétigny-sur-Orge,Ouvert,green,2.2905797,48.6021052
"VITA-LIS, Mission locale Paris Saclay- Antenne de Massy",Ouvert,green,2.2925057,48.7321877
"VITA-LIS, Mission Locale Paris Saclay- Antenne Les Ulis",Ouvert,green,2.1737075,48.6861352
CCAS Marolles-en-Hurepoix,Ouvert,green,2.2982652,48.5620402
Pôle Emploi Arpajon,Ouvert,green,2.2398142,48.5851227
Pôle Emploi Brétigny-sur-Orge,Ouvert,green,2.2983896,48.6048133
Pôle Emploi Brunoy,Ouvert,green,2.506198099999999,48.7022199
Pôle Emploi Corbeil-Essonnes,Ouvert,green,2.4848873,48.6119892
Pôle Emploi Dourdan,Ouvert,green,2.011343,48.53380899999999
Pôle Emploi Etampes,Ouvert,green,2.1486356,48.4290459
Pôle Emploi Evry,Ouvert,green,2.4309259,48.627471
Pôle Emploi Juvisy-sur-Orge,Ouvert,green,2.3711507,48.69586630000001
Pôle Emploi Les Ulis,Ouvert,green,2.1784358,48.685014
Pôle Emploi Longjumeau,Ouvert,green,2.287183199999999,48.6945051
Pôle Emploi Palaiseau,Ouvert,green,2.2485062,48.7173094
Pôle Emploi Sainte-Geneviève-des-Bois,Ouvert,green,2.3329532,48.6382578
Pôle Emploi Savigny-sur-Orge,Ouvert,green,2.334111,48.6921054
Pôle Emploi Viry-Châtillon,Ouvert,green,2.3885392,48.6762944
CCAS Etampes,Ouvert,green,2.1611738,48.4348066
CCAS Angerville,Ouvert,green,1.9977842,48.3107008
CCAS Arpajon,Ouvert,green,2.2467139,48.5897443
Service social de la Mairie d'Avrainville,Ouvert,green,2.2450681,48.5613755
CCAS Ballainviliers,Ouvert,green,2.2924574,48.6764592
CCAS Ballancourt,Modification,orange,2.3859693,48.5255055
CCAS Boussy Saint Antoine,Ouvert,green,2.5289012,48.690484
CCAS Brétigny-sur-Orge,Ouvert,green,2.3061778,48.603377
CCAS Breuillet,Ouvert,green,2.173117,48.56668320000001
CCAS Brunoy,Ouvert,green,2.5039558,48.6979127
CCAS Bures-sur-Yvette,Ouvert,green,2.1639274,48.6968768
CCAS Chilly-Mazarin,Ouvert,green,2.3139927,48.7017472
CCAS Crosne,Ouvert,green,2.4577547,48.71663419999999
CCAS d'Evry-Courcouronnes,Ouvert,green,2.4283485,48.6240806
CCAS Soisy-sur-Seine,Ouvert,green,2.4523821,48.6459171
CCAS Dourdan,Ouvert,green,2.0130113,48.5291925
CCAS Draveil,Ouvert,green,2.419952,48.7002546
CCAS Egly,Ouvert,green,2.2219566,48.5800375
CCAS Epinay-sous-Sénart,Ouvert,green,2.514760700000001,48.6947903
CCAS Epinay-sur-Orge,Ouvert,green,2.3239685,48.6725153
CCAS Fleury Merogis,Ouvert,green,2.3607535,48.6299946
Maison de justice et du droit (Grand-Orly Seine Bièvre),Ouvert,green,2.372312099999999,48.6985104
Maison de justice et du droit d'Etampes,Ouvert,green,2.1523467,48.43159629999999
Maison de justice et du droit Paris-Saclay,Ouvert,green,2.16745,48.684757
Maison de justice et du droit,Ouvert,green,2.3384481,48.65977780000001
PASS Juvisy-sur-Orge,Ouvert,green,2.3735831,48.69117000000001
Pôle Familles,Ouvert,green,2.3807868,48.6856433
Pôle prévention,Ouvert,green,2.380726,48.68588159999999
CCAS Milly-la-Forêt,Ouvert,green,2.4673194,48.4031739
CCAS Gif-sur-Yvette,Modification,orange,2.1339425,48.7018272
CCAS Grigny,Ouvert,green,2.3786857,48.6502762
CCAS Lardy,Modification,orange,2.2634601,48.5219865
Secours populaire Milly-la-Forêt,Ouvert,green,2.4665254,48.4015644
Secours populaire de l'Arpajonnais,Fermé,red,2.2587225,48.5947722
Secours populaire Lisses,Ouvert,green,2.4250194,48.597136
Secours populaire Université d'Evry,Fermé,red,2.4273327,48.62416839999999
Secours populaire Evry,Fermé,red,2.4291135,48.6285738
Secours populaire Grigny,Fermé,red,2.378862,48.6479376
Secours populaire Fleury-Mérogis,Fermé,red,2.3651922,48.6401093
Secours populaire Sainte-Geneviève-des-Bois,Fermé,red,2.347931,48.6414928
Secours populaire Morsang-sur-Orge,Fermé,red,2.3405189,48.6579175
Secours populaire La Ville-du-Bois,Fermé,red,2.2739742,48.6554705
Secours populaire Epinay-sur-Orge,Ouvert,green,2.3226005,48.6721037
Secours populaire Les Ulis,Fermé,red,2.1653489,48.6823467
Secours populaire Orsay-Saclay,Fermé,red,2.1841596,48.6972155
Secours populaire Massy,Fermé,red,2.2554194,48.7338891
Secours populaire Verrières-le-Buisson,Fermé,red,2.2564481,48.7393008
Secours populaire Morangis,Ouvert,green,2.3428397,48.6952881
Secours populaire Savigny-sur-Orge,Fermé,red,2.349297,48.699001
Secours populaire Athis-Mons,Ouvert,green,2.3575438,48.70059819999999
Secours populaire Montgeron,Fermé,red,2.4518762,48.7092533
"VITA-LIS, Mission Locale Paris Saclay- Antenne de Palaiseau et siège social",Ouvert,green,2.2523502,48.71664939999999
Centre Social MJC,Ouvert,green,2.3192499,48.70338089999999
CCAS Villiers-sur-Orge,Ouvert,green,2.2986528,48.6580165
CCAS Igny,Ouvert,green,2.2260174,48.7421747
CCAS Quincy-sous-Sénart,Ouvert,green,2.5404148,48.6715826
CCAS Saulx-les-Chartreux,Ouvert,green,2.2642471,48.6913653
CCAS Villabé,Ouvert,green,2.4544066,48.5889526
CCAS Morangis,Ouvert,green,2.3318857,48.7051647
CCAS Yerres,Ouvert,green,2.480904,48.7106317
CCAS Savigny-sur-Orge,Ouvert,green,2.3459697,48.6791575
Secours Catholique Angerville,Fermé,red,1.9974407,48.312206
Secours Catholique A.B.E. (Arpajon-Breuillet-Egly),Fermé,red,2.2222222,48.5801333
Secours Catholique Evry,Fermé,red,2.4313054,48.62661259999999
Secours Catholique Soisy-sur-Seine,Fermé,red,2.4526558,48.6411064
Secours Catholique Sainte-Geneviève-des-Bois,Fermé,red,2.3467713,48.6408985
APESE Haïti,Modification,orange,2.4311704,48.64236940000001
Secours Catholique Morsang-sur-Orge,Fermé,red,2.348278800000001,48.652137
Secours Catholique Viry-Châtillon,Fermé,red,2.373807,48.6710354
Secours Catholique Draveil,Fermé,red,2.401252,48.6803836
Secours Catholique Savigny-sur-Orge,Fermé,red,2.3564421,48.6768607
Secours Catholique Val d’Yerres,Fermé,red,2.5248324,48.6976299
Secours Catholique Yerres,Modification,orange,2.4839278,48.7102266
Secours Catholique Gif-sur-Yvette,Ouvert,green,2.1323041,48.70201429999999
Secours Catholique Bures-sur-Yvette,Ouvert,green,2.1626941,48.6958214
Secours Catholique Villebon-sur-Yvette,Fermé,red,2.2343722,48.69970199999999
Secours Catholique Massy,Ouvert,green,2.2732767,48.7298477
Secours Catholique Bièvres,Ouvert,green,2.2159156,48.75427119999999
Secours Catholique Palaiseau,Fermé,red,2.2412671,48.7120536
Conférence SSVP Limours,Ouvert,green,2.0773033,48.6455984
Conférence SSVP Brunoy,Ouvert,green,2.5028335,48.697422
Conférence SSVP Longjumeau,Ouvert,green,2.2931015,48.6928352
Conférence SSVP Athis-Mons,Ouvert,green,2.3718041,48.7071113
Bateau Social Draveil,Ouvert,green,2.429469,48.6905902
Association ACINA,Ouvert,green,2.4780657,48.6098323
Secours populaire Paray-Vieille-Poste,Ouvert,green,2.357063999999999,48.7135437
Association ACINA - permanence Orsay,Ouvert,green,2.1882111,48.6988704
Secours populaire Epinay-sous-Sénart,Ouvert,green,2.5266648,48.6990271
CCAS Les Ulis,Modification,orange,2.1699596,48.6840741
CCAS Leuville-sur-Orge,Ouvert,green,2.2638719,48.6162091
CCAS Limours-en-Hurepoix,Fermé,red,2.0784284,48.6457645
CCAS Linas,Ouvert,green,2.2665748,48.6313922
CCAS Lisses,Ouvert,green,2.4251068,48.59731379999999
CCAS Longjumeau (Maison de la Fraternité),Ouvert,green,2.295974299999999,48.6890456
CCAS Marcoussis,Ouvert,green,2.2292066,48.6412042
CCAS de Massy,Ouvert,green,2.2697937,48.7316036
CCAS Mennecy,Ouvert,green,2.4448971,48.5674274
CCAS Montgeron,Ouvert,green,2.461583,48.7036766
CCAS Morsang-sur-Orge,Ouvert,green,2.3464839,48.6617672
CCAS Orsay,Ouvert,green,2.1876533,48.69903049999999
CCAS Palaiseau,Ouvert,green,2.2520256,48.7164628
CCAS Le Plessis-Pâté,Ouvert,green,2.3251282,48.6123324
CCAS Ris-Orangis,Ouvert,green,2.41603,48.65361859999999
CCAS Saint-Germain-Lès-Arpajon,Ouvert,green,2.2594855,48.5950405
CCAS Saint-Michel-sur-Orge,Ouvert,green,2.3142005,48.6388615
CCAS Vigneux-sur-Seine,Ouvert,green,2.4155044,48.7009983
CCAS Viry-Châtillon,Ouvert,green,2.3750461,48.67010389999999
CCAS Verrières-le-Buisson,Ouvert,green,2.2671379,48.74646509999999
PRO EMPLOI Interim - Juvisy-sur-Orge,Ouvert,green,2.3803962,48.6865003
Secours Catholique - Délégation de l'Essonne,Ouvert,green,2.4288308,48.624966
Agence Départementale d’Information sur le Logement (ADIL) Essonne,Ouvert,green,2.4247293,48.6354069
Permanence ADIL - Arpajon,Ouvert,green,2.2485284,48.5861819
Permanence ADIL - Chilly-Mazarin,Ouvert,green,2.3208192,48.7025632
Permanence ADIL - Etampes,Ouvert,green,2.1523467,48.43159629999999
Permanence ADIL - Evry- Courcouronnes,Ouvert,green,2.4131695,48.6293338
Permanence ADIL - Les Ulis,Ouvert,green,2.16745,48.684757
Permanence ADIL - Longjumeau,Ouvert,green,2.2962948,48.68892
Permanence ADIL - Massy,Ouvert,green,2.2697937,48.7316036
Permanence ADIL - Ris-Orangis,Ouvert,green,2.4121915,48.6586916
Permanence ADIL - Vigneux-sur-Seine,Ouvert,green,2.4209045,48.700536
Permanence ADIL - Villemoisson-sur-Orge,Ouvert,green,2.3384317,48.6594153
Espace Lino Ventura,Ouvert,green,2.2586936,48.7302749
Association Léa Solidarité Femmes,Ouvert,green,2.4604529,48.703859
