name,Fermeture_Estivale,colors,longitude,latitude
Centre communal d'action sociale de Nantes (CCAS),Ouvert,green,-1.5605628,47.2199871
La MAJ - Maison Accueil de Jour,Ouvert,green,-1.5351675,47.2197841
Accueil de jour pour femmes,Ouvert,green,-1.5774896,47.2292896
Un brin de causette,Fermé,red,-1.5596015999999508,47.22007740000001
Bains-douches municipaux,Ouvert,green,-1.5505309000000125,47.2131656
L'écoute de la rue,Ouvert,green,-1.610265199999958,47.2056863
La R'ssource,Fermé,red,-1.5317069,47.2207951
Solidarité FemmeS Loire-Atlantique,Ouvert,green,-1.5573344,47.220567
Chorale au Clair de la Rue,Fermé,red,-1.5645682,47.2242829
Laverie HEPDALE,Fermé,red,-1.562093,47.1844507
Pop'fringues,Fermé,red,-1.5750925,47.2049422
Saint Vincent de Paul Nantes,Fermé,red,-1.5884757,47.20469740000001
Espace solidaire Madeleine - Fripes et Bidules,Fermé,red,-1.5508359,47.2102435
Unité locale de Nantes Croix-Rouge,Fermé,red,-1.5044293,47.2497354
La Halle aux Bagages,Modification,orange,-1.5877196,47.1989434
Centre de distribution Dalby,Fermé,red,-1.5322008,47.2215247
Centre de distribution Gustave Roch,Ouvert,green,-1.5530084,47.2022633
Centre de distribution Saint-Sébastien-sur-Loire,Fermé,red,-1.5257933,47.1966039
Espace Solidarité Secours populaire Nantes,Ouvert,green,-1.565094,47.2270395
Vérité Partage,Fermé,red,-1.5489481,47.2049851
Espace Jean Rodhain,Fermé,red,-1.5733611,47.2217663
Centre Beau-Rivage,Ouvert,green,-1.5129533,47.2187575
Centre Maternel Saint-Luc,Ouvert,green,-1.5797183,47.2173399
PASS Jean-Guillon,Ouvert,green,-1.5581977,47.2099696
CSAPA,Ouvert,green,-1.5563553,47.2255751
CAARUD L'Acôthé,Ouvert,green,-1.5710421999999653,47.2096825
L’entr’ACT,Ouvert,green,-1.5377971,47.2141756
AIDES lutte contre le sida,Ouvert,green,-1.5491633999999976,47.2110329
CEGIDD Nantes,Ouvert,green,-1.5581977,47.2099696
Maison de quartier LA MANO,Ouvert,green,-1.5731331,47.2617321
Alcooliques Anonymes- Le Ranzay,Ouvert,green,-1.528897700000016,47.2497805
Alcooliques Anonymes - Mangin,Ouvert,green,-1.5412208999999848,47.2035756
Société Française de la Croix Bleue - Section de Nantes,Ouvert,green,-1.580234,47.2099742
Sanitaire Cellier,Ouvert,green,-1.39247410410928,47.2967550262871
Sanitaire Vieux Doulon,Ouvert,green,-1.50276859414071,47.2349401485852
Sanitaire Marrière,Ouvert,green,-1.53285244350403,47.2343938752821
Sanitaire Grand Blottereau,Ouvert,green,-1.50877933912959,47.2274986071001
Sanitaire Place du marché,Ouvert,green,-1.49139177009538,47.2962282602878
Sanitaire Place Le Corvec,Ouvert,green,-1.4934256482368,47.2965300571601
Sanitaire Beaujoire (maison de la Rose),Ouvert,green,-1.53076311416444,47.2625645513395
Sanitaire Beaujoire (vallon),Ouvert,green,-1.53460443859609,47.2618953206344
Sanitaire Chantrerie,Ouvert,green,-1.52274532606656,47.2880421820774
Sanitaire Plessis Tison,Ouvert,green,-1.53555299703359,47.2353479918952
Sanitaire Eglise,Ouvert,green,-1.55005782168864,47.2992124794165
Sanitaire Gendarmerie,Ouvert,green,-1.6727998481161,47.2625792328604
Sanitaire Jeanne d'Arc,Ouvert,green,-1.6231718999999885,47.27068159999999
Sanitaire Bout des Pavés,Ouvert,green,-1.57648352562549,47.2532769221593
Sanitaire Petit Chantilly,Ouvert,green,-1.59631296898079,47.2526364561662
Sanitaire Vallée du Cens (Grotte),Ouvert,green,-1.56934660915782,47.2434041846086
Sanitaire Bourgeonnière,Ouvert,green,-1.56035224228016,47.2535618522742
Sanitaire Vallée du Cens (camping),Ouvert,green,-1.56701446155703,47.2424383596741
Sanitaire Place des cités,Ouvert,green,-1.6825397000000066,47.2147054
Sanitaire Epinettes,Ouvert,green,-1.72479448617054,47.2156318890403
Sanitaire Joseph Tahet,Ouvert,green,-1.64709926489558,47.193248886718
Sanitaire Quai Besnard,Ouvert,green,-1.6734172000000171,47.1982997
Sanitaire Marcel Paul,Ouvert,green,-1.63927863771579,47.2219280219297
Sanitaire Lieutenant Mouillie,Ouvert,green,-1.65359198849273,47.2115704139931
Sanitaire Branchoire,Ouvert,green,-1.60806749778069,47.2183976427514
Sanitaire Zola,Ouvert,green,-1.58689325701635,47.2135900046552
Sanitaire Mairie Chantenay,Ouvert,green,-1.58792608975112,47.2067635604654
Sanitaire Civelles,Ouvert,green,-1.5927835731453,47.1994734703664
Sanitaire Garennes,Ouvert,green,-1.57892821431067,47.2019266280916
Sanitaire René Bouhier,Ouvert,green,-1.57123120436148,47.2092763473293
Sanitaire Canclaux,Ouvert,green,-1.57477040504501,47.2146595270628
Sanitaire Dervallières,Ouvert,green,-1.59808821663716,47.2238186770592
Sanitaire Macé,Ouvert,green,-1.58917683647408,47.1994883164344
Sanitaire Maurice Schwob,Ouvert,green,-1.58176945128172,47.2002988655197
Le comptoir du Solilab,Ouvert,green,-1.5709130000000187,47.20141799999999
Sanitaire Square Lebé,Ouvert,green,-1.56364515123737,47.2160002423212
Sanitaire Cassegrain,Ouvert,green,-1.5587931829209,47.219262661263
Sanitaire Enfants Nantais,Ouvert,green,-1.54310426691244,47.2287894722674
Sanitaire Gabriel Trarieux,Ouvert,green,-1.52280834557691,47.2258589857588
Sanitaire Baco,Ouvert,green,-1.55254762147452,47.2128175153783
Toilettes publiques,Ouvert,green,-1.56133000110399,47.2152499245917
Toilettes publiques,Ouvert,green,-1.55622963364689,47.2170975563696
Sanitaire Bretagne,Ouvert,green,-1.55948009692146,47.2172579438702
Sanitaire Jardin des plantes Nord,Ouvert,green,-1.54456688020931,47.2205170959908
Sanitaire Cambronne,Ouvert,green,-1.56376366502621,47.2110964960782
Sanitaire Louis Bureau,Ouvert,green,-1.5647992137733,47.2127907688621
Sanitaire Noé Mitrie,Ouvert,green,-1.52710793103935,47.2269939173847
Sanitaire Vertais,Ouvert,green,-1.54655828098108,47.2020491752722
Sanitaire Jardin des cinq sens,Ouvert,green,-1.53311347965413,47.2069237282868
Sanitaire Parc des chantiers- Bar de la Branche,Ouvert,green,-1.56481030281344,47.2062333816928
Sanitaire Parc des chantiers - Les Nefs,Ouvert,green,-1.56466112957655,47.2052746937977
Sanitaire Parc des chantiers - Station Prouvé,Ouvert,green,-1.56737509578747,47.2051557694397
Sanitaire Jardin des plantes Sud,Ouvert,green,-1.54098073924425,47.2188274242079
Sanitaire Emile Fritsch,Ouvert,green,-1.56619350364038,47.2288298201608
Sanitaire Cimetière Pelleterie,Ouvert,green,-1.57020023210618,47.224487913552
Sanitaire Louis Feuillade,Ouvert,green,-1.58592716957707,47.2303488158409
Sanitaire Capucins,Ouvert,green,-1.56319871188901,47.2251122614612
Association TINHI KMOU,Ouvert,green,-1.5530084,47.2022633
Sanitaire Viarme,Ouvert,green,-1.56185137461257,47.2204112289093
Sanitaire Américains,Ouvert,green,-1.57674424164196,47.2327954941687
Sanitaire Jardin d'enfants de Procé,Ouvert,green,-1.58197343101717,47.2224040424727
Sanitaire Procé Vallon,Ouvert,green,-1.58330065600502,47.2235568442375
Sanitaire Procé Chateau,Ouvert,green,-1.58136598775862,47.223136236766
Sanitaire Gaudinière Haut,Ouvert,green,-1.57710550365362,47.2411686325569
Sanitaire Ile de Versailles,Ouvert,green,-1.55371716601873,47.225270478295
Sanitaire La Halluchère,Ouvert,green,-1.52239020890825,47.2486596406107
Sanitaire Eglise,Ouvert,green,-1.39286533092106,47.2951988547925
Sanitaire Tonelliers,Ouvert,green,-1.51780773830689,47.269500798695
Sanitaire Parking Tournefort,Ouvert,green,-1.5514622432977,47.2211674028578
Sanitaire Amiral Halgan,Ouvert,green,-1.55438473971654,47.2171778591698
Sanitaire Crapa,Ouvert,green,-1.52336922882544,47.2103577905182
Sanitaire Crapaudine,Ouvert,green,-1.5297221084211,47.1908975024982
Sanitaire Faustin Helie,Ouvert,green,-1.56248778376616,47.2177146718177
Sanitaire Gaudinière Bas,Ouvert,green,-1.57825267295222,47.2465428179967
Sanitaire Potager tropical,Ouvert,green,-1.51227510942117,47.2266524293868
Sanitaire Jean Baptiste Barre,Ouvert,green,-1.52768342121573,47.2226964729384
Sanitaire Jean Le Gigant,Ouvert,green,-1.59354973264737,47.2043291674751
Sanitaire Oblates,Ouvert,green,-1.5839366442963,47.2006574903376
Sanitaire Ile Versailles Capitainerie,Ouvert,green,-1.55369078770185,47.2252713684107
Sanitaire Pirmil,Ouvert,green,-1.54114446382891,47.196458125064
Sanitaire Denis Forestier,Ouvert,green,-1.61282701891088,47.2094437080825
Sanitaire Marché,Ouvert,green,-1.68881374199635,47.1413567879381
Sanitaire Eglise,Ouvert,green,-1.69329004055767,47.1445322159992
Sanitaire Eglise,Ouvert,green,-1.7317359999999553,47.135077
Sanitaire Similien Guérin,Ouvert,green,-1.68337966299872,47.1878812533845
Sanitaire Mairie Saint-Jean-de-Boiseau,Ouvert,green,-1.7247125000000096,47.19561539999999
Sanitaire Canal,Ouvert,green,-1.78556903413688,47.2061867666696
Sanitaire Herminier,Ouvert,green,-1.7551368848215,47.2030285566745
Sanitaire Halles,Ouvert,green,-1.7546561999999994,47.20137399999999
Sanitaire Mairie,Ouvert,green,-1.7224459000000252,47.1696955
Sanitaire Freinet,Ouvert,green,-1.58854385914105,47.1807661934522
Sanitaire Eglise,Ouvert,green,-1.62375737387148,47.1790655037078
Sanitaire Neustrie,Ouvert,green,-1.59307617084829,47.1769998188308
Sanitaire Roche Ballue,Ouvert,green,-1.65444662050528,47.1842123665492
Sanitaire Leclerc,Ouvert,green,-1.5870896999999786,47.1850653
Sanitaire Les jardins familiaux,Ouvert,green,-1.62288200246808,47.1677644264054
Sanitaire Champ Toury,Ouvert,green,-1.62937242933986,47.177349653857
Sanitaire Joliot curie,Ouvert,green,-1.5287989913016,47.1942159314792
Sanitaire Eglise,Ouvert,green,-1.54759831529334,47.1846939937215
Sanitaire Pays de Retz,Ouvert,green,-1.562394809477,47.1848696885941
Sanitaire 8 mai,Ouvert,green,-1.55155146434883,47.1891001039323
Sanitaire Balinière,Ouvert,green,-1.5516791999999668,47.1834367
Sanitaire La Robinière,Ouvert,green,-1.53177824945554,47.1636165228539
Sanitaire Cimetière St Pierre,Ouvert,green,-1.5650322849317,47.1905078077965
Sanitaire Cimetière St Paul,Ouvert,green,-1.54352670741723,47.1847104484583
Sanitaire Parc de la Morinière,Ouvert,green,-1.53188936779172,47.1830442310594
Sanitaire Hôtel de Ville,Ouvert,green,-1.5694985000000088,47.19126860000001
Sanitaire Parc Chêne Gala,Ouvert,green,-1.5376651999999922,47.1878906
Sanitaire Stade Robinière,Ouvert,green,-1.53204691980543,47.1647178098502
Sanitaire Cimetière Classerie,Ouvert,green,-1.55831922900723,47.1717283803808
Sanitaire Stade Léo lagrange,Ouvert,green,-1.57022297073413,47.1817949613664
Sanitaire Poste,Ouvert,green,-1.50514404023303,47.2074361214992
Sanitaire Eglise,Ouvert,green,-1.50364140031247,47.2084138753702
Sanitaire Liberté,Ouvert,green,-1.51773095275049,47.1935509230788
Sanitaire Eglise,Ouvert,green,-1.46531932254415,47.2150160899479
Sanitaire Salle Zodiaque,Ouvert,green,-1.46597579162715,47.2173721110801
Sanitaire Face Mairie,Ouvert,green,-1.5304923999999573,47.14830509999999
Sanitaire Garnier,Ouvert,green,-1.4841550999999527,47.1650901
Sanitaire Pierre Percée,Ouvert,green,-1.47240648550308,47.1582216246082
Sanitaire Cale Beautour,Ouvert,green,-1.51088513669327,47.1709208087693
Sanitaire Capitainerie,Ouvert,green,-1.47992234389478,47.1678551158433
Sanitaire Eglise,Ouvert,green,-1.47206679265198,47.1638439165467
Sanitaire Portillon,Ouvert,green,-1.46825355710177,47.1493884345102
Sanitaire 11 novembre,Ouvert,green,-1.48672336617472,47.2492980554648
Sanitaire Marché,Ouvert,green,-1.48385499949354,47.2498794405798
Sanitaire Ile Clémentine,Ouvert,green,-1.46086918880616,47.2443251085474
Sanitaire Plessis,Ouvert,green,-1.47450553357271,47.2445237680788
Sanitaire Eglise,Ouvert,green,-1.44085570593544,47.2673084420546
Sanitaire Cimetière communautaire,Ouvert,green,-1.43824383903739,47.2662951813781
Médiatèque Luce Courville,Modification,orange,-1.5724609,47.2615229
Médiathèque Jacques Demy,Modification,orange,-1.561766,47.2109266
Bibliothèque Ecole Supérieure des Beaux Arts ( ESBA ) Nantes,Fermé,red,-1.5605269999999791,47.206414
Bibliothèque du Breil-Malville,Modification,orange,-1.5853171999999631,47.23347690000001
Bibliothèque de Chantenay,Modification,orange,-1.5891658,47.2061169
BIBLIOTHEQUE LA HALVEQUE,Modification,orange,-1.5088934,47.2336281
Bibliothèque Manufacture,Modification,orange,-1.537009,47.2197523
Musée Jules Verne,Modification,orange,-1.5773590000000013,47.20164330000001
Bibliothèque Anne Frank Saint-Nazaire,Modification,orange,-2.256789499999968,47.2609913
BIBLIOTHEQUE EMILIENNE LEROUX,Fermé,red,-1.5991028999999344,47.2237684
1001 PAGES,Fermé,red,-1.5088934,47.2336281
Bibliothèque Expression Livre,Fermé,red,-1.5338477,47.1924376
MEDIATHEQUE FLORESCA GUEPIN,Modification,orange,-1.5121573,47.2411284
Structure de premier accueil des demandeurs d'asile,Ouvert,green,-1.5355131999999685,47.2435394
ASTI de Nantes Gasprom,Ouvert,green,-1.5467948000000433,47.2125771
MédiaLoc,Fermé,red,-1.5154810000000225,47.24661099999999
Repère du Carillon,Fermé,red,-1.5463376000000153,47.20416519999999
Action auprès des Mineurs Non Accompagnés - Médecins du monde,Ouvert,green,-1.5497794999999996,47.21109059999999
Casse Ta Routine,Fermé,red,-1.5761179999999513,47.2541048
Toilettes publiques,Ouvert,green,-1.5608932999999752,47.211172
Toilettes publiques 24h/24,Ouvert,green,-1.5578239999999823,47.2119321
Toillettes publiques 24h/24,Ouvert,green,-1.5490293000000293,47.2150294
Maison de quartier Les Haubans,Ouvert,green,-1.5254835,47.2150622
Le Pas - Maison des associations de Santé,Ouvert,green,-1.5922954999999774,47.2208677
Centre Parental En Vie de Famille,Ouvert,green,-1.5798661000000038,47.21714739999999
Association Nantaise d'Alphabétisation des Étrangers,Fermé,red,-1.564582200000018,47.2242725
Centre Socioculturel de Bellevue,Ouvert,green,-1.6054592000000412,47.2077936
Centre Socioculturel Boissière,Modification,orange,-1.5668554999999742,47.2542061
Centre Socioculturel Bourderies,Modification,orange,-1.5963658000000578,47.20676509999999
Centre Socioculturel Breil-Malville,Ouvert,green,-1.5860209999999597,47.22974629999999
Centre Socioculturel Hauts-Pavés / Saint-Félix,Ouvert,green,-1.5608220000000301,47.21943
Maison de Quartier des Confluences,Fermé,red,-1.5282924000000548,47.19436169999999
Musée d'Histoire de Nantes,Ouvert,green,-1.5490890999999465,47.21557610000001
Centre Socioculturel Dervallières,Ouvert,green,-1.595127199999979,47.223159
Centre Socioculturel Halvêque-Beaujoire,Ouvert,green,-1.5201852000000144,47.2550212
Maison de Quartier de L'Île,Fermé,red,-1.5508237000000236,47.2064848
Centre de Vaccinations Polyvalentes,Ouvert,green,-1.558197699999937,47.2099696
Piscine Jules Verne,Ouvert,green,-1.5157030000000304,47.2478089
Piscine Léo Lagrange,Fermé,red,-1.5579786000000695,47.21101590000001
Piscine du Petit Port,Modification,orange,-1.556550399999992,47.24235
Accueil de jour La Maison,Ouvert,green,-1.544676299999992,47.18922999999999
"Camion de la Croix-Rouge française, place  Talensac",Fermé,red,-1.5579659999999649,47.22123
Aumônerie des étudiants Quai Malakoff,Fermé,red,-1.5424579,47.2159687
Distribution de Petits déjeuners par l'Ordre de Malte,Fermé,red,-1.5513124999999945,47.2183576
Piscine de la Petite Amazonie,Fermé,red,-1.5337547000000313,47.2162795
Piscine de la Durantière,Ouvert,green,-1.5987092000000303,47.2127691
Piscine des Dervallières,Ouvert,green,-1.5895053000000416,47.2276878
Partage 44,Fermé,red,-1.5381362000000536,47.23145110000001
Arbres,Fermé,red,-1.4941867000000002,47.26523269999999
Les Jardins d'Avenir,Ouvert,green,-1.5003656,47.43795430000001
La fraternité,Modification,orange,-1.5801527999999507,47.20998059999999
Musée d'art de Nantes,Modification,orange,-1.5474902999999358,47.21953449999999
Centre de Lutte AntiTuberculeuse,Ouvert,green,-1.558197699999937,47.2099696
Museum d'histoire naturelle de Nantes,Modification,orange,-1.5651057000000037,47.2130172
La CIMADE,Ouvert,green,-1.54675670000006,47.2112683
CeGIDD de Saint-Nazaire,Ouvert,green,-2.269935499999974,47.2617229
Paloma,Ouvert,green,-1.54675670000006,47.2112683
Centre de Lutte AntiTuberculeuse,Ouvert,green,-2.25679260000004,47.2670997
Pôle emploi Nantes Sainte Luce,Ouvert,green,-1.4950108000000455,47.2482711
Pôle emploi Nantes Malakoff,Ouvert,green,-1.5249903999999788,47.2157114
Pôle emploi Nantes centre,Ouvert,green,-1.5783503999999766,47.23396380000001
Pôle emploi Saint Sebastien,Ouvert,green,-1.4843918000000258,47.1885284
Pôle emploi Ancenis,Ouvert,green,-1.1799444000000676,47.3755044
Pôle emploi Machecoul,Ouvert,green,-1.812590699999987,46.986612
Pôle emploi Blain,Ouvert,green,-1.7609410000000025,47.47374139999999
Pôle emploi Châteaubriant,Ouvert,green,-1.3721215000000484,47.71205639999999
Pôle emploi Pornic,Ouvert,green,-2.1141447999999627,47.1218839
Pôle emploi Nantes Nord,Ouvert,green,-1.5685502999999699,47.2633813
Pôle emploi Nantes Haluchère,Ouvert,green,-1.521609699999999,47.2483337
Pôle emploi Nantes Chantenay,Ouvert,green,-1.5911029999999755,47.19836979999999
Pôle emploi Trignac,Ouvert,green,-2.206753899999967,47.29583479999999
Pôle emploi Clisson,Ouvert,green,-1.2838590999999724,47.09672279999999
Pôle emploi Saint Herblain,Ouvert,green,-1.6135470000000396,47.2109436
Pôle emploi Rezé,Ouvert,green,-1.5560433000000558,47.1928694
Pôle emploi La Baule Guérande,Ouvert,green,-2.3941889,47.290942
Pôle emploi Saint Nazaire,Ouvert,green,-2.2590784000000212,47.2525039
La Boutik,Fermé,red,-1.6046923999999763,47.20442970000001
Restaurant social au Carré des services,Ouvert,green,-1.6086482000000615,47.212672
Oser Forêt Vivante,Ouvert,green,-1.5597548000000643,47.1695199
Retz'Agir Chantiers,Ouvert,green,-1.8263018999999758,46.9893921
Les babines de l'espoir 44,Ouvert,green,-1.5568788,47.2115063
SEMES - Clisson,Ouvert,green,-1.2910987999999861,47.0806441
Centre de Vaccination Polyvalente,Ouvert,green,-2.25679260000004,47.2670997
France Victimes 44 Nantes,Ouvert,green,-1.5690928000000213,47.21204210000001
Centre social spécialisé recherche et rencontres,Fermé,red,-1.554078000000004,47.2233045
Communauté Emmaüs,Ouvert,green,-1.5592578000000685,47.1604905
Mission locale Nantes Métropole site Nantes Nord,Ouvert,green,-1.5678149000000303,47.258751
Mission Locale site Saint-Herblain Sillon,Ouvert,green,-1.6091145000000324,47.2447239
Mission locale Nantes Métropole site Nantes Est,Ouvert,green,-1.5237735000000612,47.24180709999999
Mission locale Nantes Métropole site Rezé Pont-Rousseau,Ouvert,green,-1.5460388000000194,47.1909296
Mission locale Nantes Métropole site Malakoff,Ouvert,green,-1.5252327000000605,47.2159901
Maison de l'emploi site Nantes Centre,Ouvert,green,-1.559186899999986,47.2076262
Mission locale Nantes Métropole site Dervalilères,Ouvert,green,-1.5967405000000099,47.2230593
Mission locale Nantes Métropole site Bellevue,Ouvert,green,-1.6015277999999853,47.2058511
Mission locale du Pays de Retz,Ouvert,green,-1.8172185999999328,46.99296239999999
Mission locale du vignoble Nantais,Ouvert,green,-1.3036461,47.1016869
Mission Locale du Pays d’Ancenis,Ouvert,green,-1.178415599999994,47.3698564
Mission locale Nord Atlantique (Nozay),Ouvert,green,-1.6249708000000282,47.5658417
Mission locale rurale du Sillon de Bretagne,Ouvert,green,-2.0389562999999953,47.512368
Mission locale de la presqu'ile Guérandaise,Ouvert,green,-2.433385600000065,47.3374521
Mission locale de l'agglomération nazairienne,Ouvert,green,-2.2373479999999972,47.272941
CFP Presqu'Ile Nantes,Ouvert,green,-1.552372900000023,47.2043025
Épicerie solidaire brévinoise,Modification,orange,-2.1680244,47.2460356
Dépan'épices,Ouvert,green,-1.3391397000000325,47.2440211
Centre Communal d’Action Sociale (CCAS) de Rezé,Ouvert,green,-1.5694985000000088,47.19126860000001
Centre Communal d’Action Sociale (CCAS) de Saint-Herblain,Ouvert,green,-1.6489781999999877,47.2110226
Maison de la Solidarité de Saint-Sébastien-sur-Loire,Ouvert,green,-1.5053487000000132,47.2057982
Centre Communal d’Action Sociale (CCAS) de Vertou,Ouvert,green,-1.4744067000000314,47.1644974
Solidarité Emploi,Ouvert,green,-1.5504455000000235,47.2987765
Centre Communal d'Action Sociale (CCAS) d'Orvault,Ouvert,green,-1.624673600000051,47.270789
ASTRÉE,Ouvert,green,-1.5583145000000513,47.21543
Centre d'Examens de Santé ,Fermé,red,-1.5599025999999867,47.2179825
Vestiboutique de la Croix-Rouge Bouguenais,Ouvert,green,-1.6265496999999414,47.177555
Centre Communal d'Action Sociale (CCAS) de La Baule,Ouvert,green,-2.3917571,47.2884555
La Croix-Rouge antenne de Rezé,Fermé,red,-1.5628058,47.1912244
La Croix-Rouge antenne de Vallet,Fermé,red,-1.264938700000016,47.1588739
Le comptoir des alouettes,Fermé,red,-1.602487099999962,47.20163529999999
Jardin d'insertion VITAL,Ouvert,green,-1.248014000000012,47.529445
Le Centre Communal d’Action Sociale (CCAS) de la Chapelle-sur-Erdre,Ouvert,green,-1.5516129000000092,47.2989961
L'Homme Debout,Fermé,red,-1.6499484999999368,47.22168129999999
Narcotiques Anonymes (NA),Ouvert,green,-1.5416446000000406,47.2035198
Maison des Solidarités Sainte-Luce,Ouvert,green,-1.4836731000000327,47.2483977
Centre Communal d’Action Sociale (CCAS) de Carquefou,Ouvert,green,-1.4958897000000206,47.29615009999999
Centre Communal d’Action Sociale (CCAS) de Bouguenais,Ouvert,green,-1.618934999999965,47.179124
Marraine et vous,Ouvert,green,-1.5417033999999603,47.21141249999999
PASS de Saint-Nazaire,Modification,orange,-2.25679260000004,47.2670997
Habitat et humanisme Loire-Atlantique,Fermé,red,-1.530044299999986,47.2302279
SOS inceste et violences sexuelles,Fermé,red,-1.595584400000007,47.21250209999999
Maison de l'emploi - Dervallières,Ouvert,green,-1.5967405000000099,47.2230593
La Malle à Case,Fermé,red,-1.5232601000000159,47.2165752
Centre socioculturel Pilotière,Fermé,red,-1.5238140000000158,47.2450891
Centre Psychanalytique de consultations et de traitements ( CPCT ) Nantes,Fermé,red,-1.5301076000000648,47.2280447
Mission locale Nantes Métropole site Nantes Centre,Ouvert,green,-1.559186899999986,47.2076262
Lits Halte Soin Santé Saint-Benoît,Ouvert,green,-1.587719600000014,47.1989434
Le Planning Familial 44 de Nantes,Fermé,red,-1.5725262999999359,47.207648
Lits Halte Soins Santé Saint-Nazaire,Ouvert,green,-2.240095600000018,47.26197200000001
Centre Simone Veil,Ouvert,green,-1.550929799999949,47.2091909
CIDFF Nantes,Fermé,red,-1.5286406999999826,47.1941123
Les Résidences du Soleil,Ouvert,green,-1.6083039999999755,47.2440116
Dispositif ACT Montjoie,Ouvert,green,-1.5748837999999523,47.2437257
L'Autre Cantine,Ouvert,green,-1.5399563999999373,47.2149636
Alcooliques Anonymes - Hauts Pavés,Ouvert,green,-1.564582200000018,47.2242725
Centre Communal d'Action Sociale (CCAS) de Treillières,Ouvert,green,-1.6204820000000382,47.329484
Centre Communal d'Action Sociale (CCAS) de Sucé-sur-Erdre,Ouvert,green,-1.5263029000000188,47.3403058
L'Accueil d'abord,Ouvert,green,-1.5528191999999308,47.2439555
Centre Communal d'Action Sociale (CCAS) de Grandchamps-des-Fontaines,Ouvert,green,-1.605743299999972,47.3643373
Centre Communal d'Action Sociale (CCAS) de Cordemais,Modification,orange,-1.8773310000000265,47.291126
Centre Communal d'Action Sociale (CCAS) de Basse-Goulaine,Modification,orange,-1.4689705000000686,47.2148823
Centre Communal d'Action Sociale (CCAS) de Clisson,Ouvert,green,-1.2779464999999846,47.0885747
Centre Communal d'Action Sociale (CCAS) d'Heric,Fermé,red,-1.6531402000000526,47.4144824
Centre Communal d'Action Sociale (CCAS) d'Indre,Ouvert,green,-1.6654909999999745,47.1998227
Centre Communal d'Action Sociale (CCAS) d'Ancenis,Ouvert,green,-1.1766832000000704,47.3656303
Maison de quartier Bottière,Ouvert,green,-1.5191938000000391,47.2362012
Centre Communal d'Action Sociale (CCAS) de Casson,Ouvert,green,-1.5593824999999697,47.38651890000001
Maison de la Justice et du Droit de Nantes,Fermé,red,-1.5975934000000507,47.2231286
FACE 44,Ouvert,green,-1.6135600999999724,47.24507620000001
Centre Communal d'Action Sociale (CCAS) d'Aigrefeuille-sur-Maine,Ouvert,green,-1.3981377000000066,47.07583999999999
Narcotiques Anonymes (NA),Ouvert,green,-1.5781679000000395,47.20224229999999
Narcotiques Anonymes ( NA ),Ouvert,green,-1.5538707000000613,47.2171027
Maison de Quartier Madeleine Champs de Mars,Ouvert,green,-1.5481528000000253,47.2129275
Narcotiques Anonymes ( NA ),Ouvert,green,-1.5466463000000203,47.2211118
CSAPA 44 - Ancenis,Fermé,red,-1.1793542000000343,47.3696097
CSAPA 44 Rezé,Ouvert,green,-1.5468135999999504,47.1878385
Recyclerie Nort-sur-Erdre,Ouvert,green,-1.5160505,47.4344118
Mouvement Vie Libre Orvault,Ouvert,green,-1.5950013000000354,47.2560458
Mouvement Vie libre Nantes,Ouvert,green,-1.5728583000000071,47.2630185
Centre Communal d’Action Sociale de Saint-Brevin-les-Pins,Ouvert,green,-2.1687910000000556,47.2468756
Centre Communal d'Action Sociale de Ligné,Modification,orange,-1.3758365999999569,47.4117711
Solidari'Meubles,Ouvert,green,-1.5968890000000329,47.19849490000001
Centre Communal d'Action Sociale (CCAS) de Vair-Sur-Loire (site de Saint-Herblon),Fermé,red,-1.0948889999999665,47.406864
Centre Communal d'Action Sociale (CCAS) de Chaumes-en-Retz,Ouvert,green,-1.942216,47.1160196
Centre Communal d'Action Sociale (CCAS) d'Asserac,Ouvert,green,-2.391837399999986,47.4279874
Centre Communal d'Action Sociale (CCAS) d'Avessac,Modification,orange,-1.988849699999946,47.6546134
Centre Communal d'Action Sociale (CCAS) d'Erbray,Ouvert,green,-1.3177090000000362,47.6546049
France Services Riaille,Ouvert,green,-1.2961989,47.5175936
Centre Communal d'Action Sociale (CCAS) d'Herbignac,Ouvert,green,-2.3161148000000367,47.44938940000001
Centre Communal d'Action Sociale (CCAS) d'Issé,Modification,orange,-1.4509799999999586,47.6234134
Centre Communal d'Action Sociale (CCAS) d'Oudon,Ouvert,green,-1.2844056000000137,47.34720739999999
Centre Communal d'Action Sociale (CCAS) de Divatte-sur-Loire - Marie siège,Fermé,red,-1.339519600000017,47.2720527
Centre Communal d'Action Sociale (CCAS) de Batz-sur-Mer,Ouvert,green,-2.4778823999999986,47.27755379999999
Centre Communal d'Action Sociale (CCAS) de Loireauxence,Ouvert,green,-1.032167999999956,47.3858919
Centre Communal d'Action Sociale (CCAS) de Besné,Ouvert,green,-2.0918464000000085,47.3963837
Comité de Coüeron,Ouvert,green,-1.7250434000000041,47.20907640000001
Centre Communal d'Action Sociale (CCAS) de Blain,Ouvert,green,-1.766931999999997,47.477985
Centre Communal d'Action Sociale (CCAS) de Vallons-de l'Erdre,Ouvert,green,-1.18439699999999,47.524938
Centre Communal d'Action Sociale (CCAS) de Bouaye,Ouvert,green,-1.6942851999999675,47.1435405
Centre Communal d'Action Sociale (CCAS) de Savenay,Ouvert,green,-1.9408758,47.36358669999999
Centre Communal d'Action Sociale (CCAS) de Villeneuve-en-Retz,Ouvert,green,-1.952020100000027,47.04346839999999
Centre Communal d'Action Sociale (CCAS) de Boussay,Modification,orange,-1.187062400000059,47.0426854
Centre Communal d'Action Sociale (CCAS) de Bouvron,Fermé,red,-1.8476660999999694,47.4176466
Centre Communal d'Action Sociale (CCAS) de Brains,Ouvert,green,-1.7224186999999347,47.1696924
Centre Communal d'Action Sociale (CCAS) de Campbon,Ouvert,green,-1.968898500000023,47.41243430000001
Centre Communal d'Action Sociale (CCAS) de Château-Thébaud,Fermé,red,-1.418676000000005,47.1245036
Centre Communal d'Action Sociale (CCAS) de Châteaubriant,Ouvert,green,-1.376374100000021,47.7212602
Centre Communal d'Action Sociale (CCAS) de Corcoué-sur-Lorgne,Ouvert,green,-1.5758923999999297,46.963607
Le bus du cœur,Fermé,red,-1.5579659999999649,47.22123
Centre Communal d'Action Sociale (CCAS) de Corsept,Ouvert,green,-2.0578501999999617,47.2784539
Centre Communal d'Action Sociale (CCAS) de Couffé,Modification,orange,-1.2914474000000382,47.3917289
Centre Communal d'Action Sociale (CCAS) de Derval,Ouvert,green,-1.672281699999985,47.66801770000001
Centre Communal d'Action Sociale (CCAS) de Donges,Ouvert,green,-2.074532,47.318979
Centre Communal d'Action Sociale (CCAS) de Drefféac,Modification,orange,-2.0570431999999528,47.47691289999999
Centre Communal d'Action Sociale (CCAS) de Fay-de-Bretagne,Ouvert,green,-1.7905395000000226,47.414085
Centre Médico-Psychologique ( CMP ) Beaumanoir,Ouvert,green,-1.5712671,47.21299510000001
Distributeur-échangeur de seringues,Ouvert,green,-1.5516121000000567,47.2109533
Distributeur-échangeur de seringues,Ouvert,green,-1.5331562000000076,47.2196211
AC Nantes -  Pôle associatif Baco,Ouvert,green,-1.5510039000000688,47.21305029999999
Centre Communal d'Action Sociale (CCAS) de Fégréac,Modification,orange,-2.0422819000000345,47.5860321
Centre Communal d'Action Sociale (CCAS) de Fresnay-en-Retz,Ouvert,green,-1.878598,47.0259716
Centre Communal d'Action Sociale (CCAS) de Frossay,Fermé,red,-1.9333367000000408,47.24495249999999
Centre Communal d'Action Sociale (CCAS) de Géneston,Ouvert,green,-1.5155730000000176,47.055443
Centre Communal d'Action Sociale (CCAS) de Gétigné,Ouvert,green,-1.249186399999985,47.0776104
Centre Communal d'Action Sociale (CCAS) de Gorges,Ouvert,green,-1.3021248000000014,47.10125359999999
Centre Communal d'Action Sociale (CCAS) de Grand-Auverné,Ouvert,green,-1.3293853000000126,47.59025159999999
Centre Communal d'Action Sociale (CCAS) de Guémené-Penfao,Ouvert,green,-1.8344547000000375,47.6286368
Centre Communal d'Action Sociale (CCAS) de Guenrouët,Ouvert,green,-1.9552765999999338,47.5194774
Centre Communal d'Action Sociale (CCAS) de Guérande,Ouvert,green,-2.42806829999995,47.32472689999999
Centre Communal d'Action Sociale (CCAS) de Haute-Goulaine,Ouvert,green,-1.431293299999993,47.19821779999999
Maison des habitants et du citoyen,Fermé,red,-1.6046923999999763,47.20442970000001
Centre Communal d'Action Sociale (CCAS) de Joué-sur-Erdre,Modification,orange,-1.420310900000004,47.4965412
Centre Communal d'Action Sociale (CCAS) de La Chapelle-des-Marais,Ouvert,green,-2.2429426999999578,47.44668410000001
Centre Communal d'Action Sociale (CCAS) de La Chapelle-Heulin,Modification,orange,-1.3416197999999895,47.1751097
Centre Communal d'Action Sociale (CCAS) de La Chevrolière,Ouvert,green,-1.613273,47.093082
Centre Communal d'Action Sociale (CCAS) de La Grigonnais,Modification,orange,-1.6672578999999814,47.5264214
Centre Communal d'Action Sociale (CCAS) de La Haye-Fouassière,Ouvert,green,-1.3994476000000304,47.15539159999999
Centre Communal d'Action Sociale (CCAS) de La Limouzinière,Modification,orange,-1.5955549999999903,46.991969
Centre Communal d'Action Sociale (CCAS) de La Plaine-sur-Mer,Ouvert,green,-2.1908943999999337,47.1378795
Centre Communal d'Action Sociale (CCAS) de La Regrippière,Ouvert,green,-1.1761271999999963,47.1810633
Centre Communal d'Action Sociale (CCAS) de La Remaudière,Ouvert,green,-1.2441182000000026,47.2365544
Centre Communal d'Action Sociale (CCAS) de Machecoul,Ouvert,green,-1.818342400000006,46.9927678
Centre Communal d'Action Sociale (CCAS) de Malville,Ouvert,green,-1.8609510999999657,47.35338489999999
Centre Communal d'Action Sociale (CCAS) de Mauves-sur-Loire,Ouvert,green,-1.3939778999999817,47.2973073
Centre Communal d'Action Sociale (CCAS) de Mesanger,Fermé,red,-1.2287886000000299,47.4311959
Centre Communal d'Action Sociale (CCAS) de Mesquer-Quimiac,Ouvert,green,-2.4604100000000244,47.39989800000001
Centre Communal d'Action Sociale (CCAS) de Missillac,Ouvert,green,-2.158582600000045,47.4812434
Centre Communal d'Action Sociale (CCAS) de Monnières,Modification,orange,-1.3547250000000304,47.13204450000001
Centre Communal d'Action Sociale (CCAS) de Montbert,Ouvert,green,-1.4878357999999707,47.0576152
Centre Communal d'Action Sociale (CCAS) de Montoir-de-Bretagne,Ouvert,green,-2.1502454999999827,47.32707449999999
Centre Communal d'Action Sociale (CCAS) de Nort-sur-Erdre,Ouvert,green,-1.49944,47.43856539999999
Antenne Prévention Dépistage du Pays d'Ancenis,Ouvert,green,-1.1739482000000407,47.3742888
Centre Communal d'Action Sociale (CCAS) de Notre-Dame-des-Landes,Modification,orange,-1.7113660999999638,47.3803923
Centre Communal d'Action Sociale (CCAS) de Paimboeuf,Ouvert,green,-2.0349879999999985,47.288992
Centre Communal d'Action Sociale (CCAS) de Paulx,Ouvert,green,-1.7538805000000366,46.962697
Centre Communal d'Action Sociale (CCAS) de Petit-Mars,Modification,orange,-1.456416900000022,47.39573980000001
Centre Communal d'Action Sociale (CCAS) de Piriac-sur-Mer,Ouvert,green,-2.5452069000000392,47.379379
Centre Communal d'Action Sociale (CCAS) de Plessé,Ouvert,green,-1.8845440000000053,47.542374
Centre Communal d'Action Sociale (CCAS) de Pont-Château,Ouvert,green,-2.089389100000062,47.4367103
Centre Communal d'Action Sociale (CCAS) de Pont-Saint-Martin,Ouvert,green,-1.5807446000000027,47.1274235
Centre Communal d'Action Sociale (CCAS) de Pornic,Ouvert,green,-2.111820200000011,47.1246078
Centre Communal d'Action Sociale (CCAS) de Pornichet,Ouvert,green,-2.3397562000000107,47.2629489
Centre Communal d'Action Sociale (CCAS) de Port-Saint-Père,Modification,orange,-1.7486867000000075,47.133528
Centre Communal d'Action Sociale (CCAS) de Préfailles,Ouvert,green,-2.2163087000000132,47.12832569999999
Centre Communal d'Action Sociale (CCAS) de Puceul,Ouvert,green,-1.6194992000000639,47.5214159
Centre Communal d'Action Sociale (CCAS) de Quilly,Modification,orange,-1.9518809999999576,47.46026399999999
Office Français de l'Immigration et de l'Intégration (OFII),Ouvert,green,-1.551851499999998,47.1871264
AFEP - Accueil familles étrangères en situation de précarité,Ouvert,green,-1.5738701,47.2098323
Permanence Chaptal,Ouvert,green,-1.573870100000022,47.2098323
Espaces Formation,Ouvert,green,-1.5994572,47.2160017
Centre Communal d'Action Sociale (CCAS) de Remouillé,Ouvert,green,-1.3783019999999624,47.0569199
"Alcooliques Anonymes, Pôle Dulcie September",Ouvert,green,-1.5538707000000613,47.2171027
"Centre de planification, d'éducation familiale et CIVG",Modification,orange,-1.3816602,47.7256609
Alcooliques Anonymes,Ouvert,green,-1.5846523999999818,47.212164
AlterSoin pour Tous 44,Fermé,red,-1.5967229999999972,47.2093602
Centre Communal d'Action Sociale (CCAS) de Rouans,Ouvert,green,-1.858613699999978,47.18564070000001
Centre Communal d'Action Sociale (CCAS) de Saffré,Ouvert,green,-1.5796010999999908,47.50124369999999
Centre Communal d'Action Sociale (CCAS) de Saint-Aignan-de-Grandlieu,Ouvert,green,-1.6314012999999932,47.1239621
Centre Communal d'Action Sociale (CCAS) de Saint-André-des-Eaux,Ouvert,green,-2.3106295000000046,47.3136214
Centre Communal d'Action Sociale (CCAS) de Saint-Colomban,Modification,orange,-1.5819796000000679,47.0114029
Centre Communal d'Action Sociale (CCAS) de Saint-Etienne-de-Mer-Morte,Ouvert,green,-1.7427678999999898,46.9296295
Centre Communal d'Action Sociale (CCAS) de Saint-Etienne-de-Montluc,Ouvert,green,-1.7817843999999923,47.2746374
Centre Communal d'Action Sociale (CCAS) de Saint-Fiacre-sur-Maine,Modification,orange,-1.4164686000000302,47.1429981
Centre Communal d'Action Sociale (CCAS) de Saint-Hilaire-de-Chaléons,Modification,orange,-1.8627203999999438,47.1026912
Centre Communal d'Action Sociale (CCAS) de Saint-Jean-de-Boiseau,Modification,orange,-1.724770000000035,47.194944
Centre Communal d'Action Sociale (CCAS) de Saint-Joachim,Ouvert,green,-2.2001662000000124,47.3823118
Centre Communal d'Action Sociale (CCAS) de Saint-Julien-de-Concelles,Ouvert,green,-1.385837400000014,47.25337950000001
Centre Communal d'Action Sociale (CCAS) de Saint-Léger-les-Vignes,Modification,orange,-1.72696940000003,47.1361128
Borne Fontaine,Ouvert,green,-1.5477746999999908,47.21325759999999
La Maison de l'Habitant,Ouvert,green,-1.5601827000000412,47.2188275
Borne à eau potable,Ouvert,green,-1.5541608999999426,47.225612
Borne Fontaine,Ouvert,green,-1.5855080000000044,47.2303697
Borne à eau potable,Ouvert,green,-1.5783619000000044,47.2445819
Borne Fontaine,Ouvert,green,-1.5174740999999585,47.2474056
Borne Fontaine d'eau potable,Ouvert,green,-1.5160515000000032,47.2462113
Borne à eau potable,Ouvert,green,-1.5143960000000334,47.242766
Borne à eau potable,Ouvert,green,-1.5125643000000082,47.2402917
Robinet d'eau,Ouvert,green,-1.5633387000000312,47.21828350000001
Borne à eau potable,Ouvert,green,-1.5783619000000044,47.2445819
Centre Communal d'Action Sociale (CCAS) de Saint-Lumine-de-Coutais,Modification,orange,-1.7255239999999503,47.0565003
Centre Communal d'Action Sociale (CCAS) de Saint-Lyphard,Ouvert,green,-2.3097073000000137,47.39726479999999
Centre Communal d'Action Sociale (CCAS) de Saint-Malo-de-Guersac,Modification,orange,-2.1788272000000006,47.3513645
Fontaine Wallace,Ouvert,green,-1.5631233000000293,47.2119636
Fontaine Wallace,Ouvert,green,-1.5591810999999325,47.21260119999999
Fontaine Wallace,Ouvert,green,-1.5575050999999576,47.2139988
Jardin des plantes,Ouvert,green,-1.5425841999999648,47.2193987
Fontaine Wallace,Ouvert,green,-1.541377300000022,47.2204939
Une famille un Toit 44 - Pôle de Nantes,Ouvert,green,-1.5284341,47.1959637
Centre Communal d'Action Sociale (CCAS) La Turballe,Ouvert,green,-2.5084902999999485,47.3463411
Centre Communal d'Action Sociale (CCAS) du Landreau,Ouvert,green,-1.3066072000000304,47.2056161
Centre Communal d'Action Sociale (CCAS) de Saint-Mars-du-Désert,Ouvert,green,-1.4048606000000063,47.3659903
Centre Communal d'Action Sociale (CCAS) de Saint-Michel-Chef-Chef,Fermé,red,-2.147687000000019,47.1822856
Centre Communal d'Action Sociale (CCAS) de Saint-Molf,Modification,orange,-2.424310300000002,47.39138
Centre Communal d'Action Sociale (CCAS) de Saint-Nazaire,Ouvert,green,-2.217705600000045,47.2724817
Centre Communal d'Action Sociale (CCAS) de Saint-Nicolas-de-Redon,Ouvert,green,-2.068603199999984,47.6426345
Centre Communal d'Action Sociale (CCAS) de Sainte-Pazanne,Fermé,red,-1.8115559000000303,47.1030217
Centre Communal d'Action Sociale (CCAS) de Saint-Père-en-Retz,Fermé,red,-2.043995699999982,47.2074674
Centre Communal d'Action Sociale (CCAS) de Sautron,Ouvert,green,-1.6716229999999541,47.2687759
Centre Communal d'Action Sociale (CCAS) de Teillé,Ouvert,green,-1.28148920000001,47.4614189
Centre Communal d'Action Sociale (CCAS) de Thouaré-sur-Loire,Ouvert,green,-1.4395939999999428,47.2672999
Centre Communal d'Action Sociale (CCAS) de Touvois,Ouvert,green,-1.6839159999999538,46.90364269999999
Centre Communal d'Action Sociale (CCAS) de Trignac,Ouvert,green,-2.198725100000047,47.2998672
Centre Communal d'Action Sociale (CCAS) de Vallet,Modification,orange,-1.2686630000000605,47.1624156
Centre Communal d'Action Sociale (CCAS) de Vay,Modification,orange,-1.7028788999999733,47.55426919999999
Centre Communal d'Action Sociale (CCAS) de Vieillevigne,Ouvert,green,-1.434852699999965,46.97176630000001
Centre Communal d'Action Sociale (CCAS) de Vigneux-de-Bretagne,Ouvert,green,-1.735879999999952,47.32671589999999
Centre Communal d'Action Sociale (CCAS) du Bignon,Modification,orange,-1.491482499999961,47.0969133
Centre Communal d'Action Sociale (CCAS) du Cellier,Fermé,red,-1.3489093000000594,47.3256575
Centre Communal d'Action Sociale (CCAS) du Croisic,Ouvert,green,-2.51351539999996,47.29423099999999
Centre Communal d'Action Sociale (CCAS) du Loroux-Bottereau,Fermé,red,-1.348849599999994,47.23682069999999
Centre Communal d'Action Sociale (CCAS) du Pallet,Ouvert,green,-1.3375217000000248,47.1398378
Centre Communal d'Action Sociale (CCAS) du Pellerin,Ouvert,green,-1.7543630999999777,47.19903890000001
Centre Communal d'Action Sociale (CCAS) du Pouliguen,Ouvert,green,-2.424809900000014,47.2699204
Centre Communal d'Action Sociale (CCAS) du Temple-de-Bretagne,Ouvert,green,-1.7932772999999997,47.3311662
Maison de l’emploi de la métropole nantaise site Bellevue,Ouvert,green,-1.6015277999999853,47.2058511
Maison de l'emploi site Malakoff,Ouvert,green,-1.5252327000000605,47.2159901
Maison de l'emploi site Nantes Est,Ouvert,green,-1.5237735000000612,47.24180709999999
Maison de l'emploi site Nantes Nord,Ouvert,green,-1.5678149000000303,47.258751
Maison de l'emploi site Saint-Herblain Sillon,Ouvert,green,-1.6091145000000324,47.2447239
Maison de l'emploi site Rezé Pont-Rousseau,Ouvert,green,-1.5460388000000194,47.1909296
Centre de distribution de Couëron,Fermé,red,-1.7191020000000208,47.2126525
Centre de distribution de la Chapelle-sur-Erdre,Fermé,red,-1.5650144,47.296748
Centre de distribution du Pellerin,Fermé,red,-1.7544503000000304,47.1993235
Centre de distribution d’Orvault,Fermé,red,-1.6121866999999384,47.25231220000001
Centre de distribution de Saint-Herblain,Fermé,red,-1.6390268000000106,47.223838
Centre de distribution de Guérande,Ouvert,green,-2.4020871,47.3244653
Centre de distribution de La Baule,Ouvert,green,-2.393397499999992,47.2869867
Centre de distribution du Croisic,Ouvert,green,-2.5151054000000386,47.2954035
Centre de distribution du Pouliguen,Ouvert,green,-2.4329446,47.2794672
Centre de distribution de Pornichet,Ouvert,green,-2.319398099999944,47.2542726
Centre de distribution de Saint-Nazaire,Ouvert,green,-2.225084000000038,47.28459480000001
Centre de distribution de Guémené Penfao,Ouvert,green,-1.8274897,47.6270393
Centre de distribution de Savenay,Ouvert,green,-1.95252430000005,47.35818219999999
Centre de distribution de Pontchâteau,Ouvert,green,-2.0927308999999923,47.4375647
Centre de distribution de Saint-Gildas-des-bois,Ouvert,green,-2.0475430000000188,47.486851
Centre de distribution d’Ancenis,Ouvert,green,-1.1794340000000147,47.38338479999999
Centre de distribution de Châteaubriant,Ouvert,green,-1.3773647000000437,47.7075673
Centre de distribution de Nort-sur-Erdre,Fermé,red,-1.5093219,47.4371811
Centre de distribution de Nozay,Ouvert,green,-1.617156600000044,47.5635026
Centre de distribution de Saint-Mars-la-Jaille,Ouvert,green,-1.1821158000000196,47.5190761
Centre de distribution de Saffré,Ouvert,green,-1.5828382,47.5017921
Centre de distribution de la Bernerie-en-Retz,Ouvert,green,-2.0365671,47.08077939999999
Centre de distribution de Legé,Fermé,red,-1.5943315,46.8871838
Centre de distribution de Machecoul,Fermé,red,-1.8132612,46.9862597
Centre de distribution de Saint-Viaud,Ouvert,green,-2.0078758,47.2785953
Centre de distribution de Pornic,Ouvert,green,-2.111820200000011,47.1246078
Centre de distribution de Saint-Philbert-de-Grandlieu,Ouvert,green,-1.6301641999999674,47.0312065
Centre de distribution du Loroux-Bottereau,Ouvert,green,-1.339868499999966,47.24311729999999
Centre de distribution de Clisson,Modification,orange,-1.2865322999999762,47.08285720000001
Centre de distribution de Vallet,Ouvert,green,-1.264938700000016,47.1588739
Mission locale Chateaubriant,Ouvert,green,-1.3756729000000405,47.7115879
Mission locale Derval,Fermé,red,-1.6704141000000163,47.6682919
Pastorale des migrants,Fermé,red,-1.5528191999999308,47.2439555
Association santé migrant Loire Atlantique (ASAMLA),Ouvert,green,-1.5500601999999617,47.2092456
Stereolidaire,Ouvert,green,-1.563470000000052,47.205123
Mission locale Grandchamps des Fontaines,Fermé,red,-1.606800000000021,47.36379
Mission locale Blain,Ouvert,green,-1.7612553999999818,47.4742522
Mission locale Nort sur Erdre,Ouvert,green,-1.5001795,47.4380532
Société Saint Vincent de Paul Ancenis,Fermé,red,-1.1820648000000347,47.3656117
Société Saint Vincent de Paul Châteaubriant,Ouvert,green,-1.3851535000000013,47.72345139999999
Société Saint Vincent de Paul Saint-Gildas-des-Bois,Fermé,red,-2.0207388000000037,47.51308989999999
Société Saint Vincent de Paul La Baule,Fermé,red,-2.3771902999999384,47.289486
Société Saint Vincent de Paul Pornichet,Fermé,red,-2.3322087999999894,47.25713819999999
Maison de l'Avocat,Ouvert,green,-1.5623511999999664,47.2067254
Ecole Hors les murs,Fermé,red,-1.5301402000000053,47.221993
Association Dynamixt - Multisport,Fermé,red,-1.5595056,47.20555349999999
Association Dynamixt - Apprentissage du vélo,Fermé,red,-1.5644519999999602,47.2062447
Association Dynamixt - Match de foot loisir,Fermé,red,-1.5630840999999691,47.2476737
Accompagnement Migrant Intégration - A.M.I,Ouvert,green,-1.5995203999999603,47.2159424
JRS Welcome Nantes,Ouvert,green,-1.5528191999999308,47.2439555
Laverie Hepdalé Saint-Nazaire,Ouvert,green,-2.204737199999954,47.27305519999999
Centre de Planification ou d'éducation familiale (CPEF) Ancenis,Ouvert,green,-1.1739482000000407,47.3742888
Maison Départementale des personnes en situation de handicap (MDPH) Orvault,Ouvert,green,-1.6194649000000254,47.251546
Le Devoir d'Agir,Ouvert,green,-1.4827765,47.2014943
Collectif Enfants Etrangers Citoyens Solidaires,Ouvert,green,-1.535393900000031,47.21945119999999
Maison Départementales des personnes en situation de handicap ( MDPH ) : espace d'accueil de Saint-Nazaire,Fermé,red,-2.2108031999999866,47.28582489999999
Association Dynamixt - Gym d'entretien,Fermé,red,-1.6048025000000052,47.2033795
ALIS 44,Ouvert,green,-1.5199192,47.2390914
Garage automobile solidaire & atelier de réparation de vélos,Ouvert,green,-1.6452013000000534,47.2189384
Ouvrir l'école aux parents - Atelier Collège Berlioz,Ouvert,green,-1.5719497999999703,47.240236
Ding Fring Nantes - Champs de Mars,Ouvert,green,-1.5468405000000303,47.2120025
Ding Fring Nantes - Brunellière,Ouvert,green,-1.5693353000000343,47.2092006
Ding Fring Nantes - Marsauderies,Ouvert,green,-1.5319200000000137,47.2413618
Ding Fring Rezé,Ouvert,green,-1.550301300000001,47.18897310000001
Ouvrir l'école aux parents - Atelier collège La Durantière,Ouvert,green,-1.6029737999999725,47.2145363
Ouvrir l'école aux parents - Atelier Collège Rosa Parks,Ouvert,green,-1.5924704000000247,47.2308371
Ouvrir l'école aux parents - Atelier Collège Stendhal,Ouvert,green,-1.5697777999999971,47.2609763
Ouvrir l'école aux parents - Atelier Collège Jean Moulin,Ouvert,green,-2.2241308000000117,47.2867104
Ouvrir l'école aux parents - Atelier Collège Pierre Norange,Ouvert,green,-2.2460978000000296,47.2663086
SEMES - Vallet,Fermé,red,-1.2652408999999807,47.160577
SEMES - Aigrefeuille,Ouvert,green,-1.401919399999997,47.0753375
Une vie sans faim - Distribution halles du marché de Talensac,Fermé,red,-1.5579659999999649,47.22123
Recyclerie Blain,Ouvert,green,-1.7475252,47.48242029999999
Médiathèque Lisa-Bresner,Modification,orange,-1.6029971000000387,47.2097755
Médiathèque Gao-Xingjian,Fermé,red,-1.6098345000000336,47.2447591
Centre socioculturel Château,Ouvert,green,-1.5585728999999446,47.18185779999999
Maison de la Justice et du Droit de Rezé,Ouvert,green,-1.5460388000000194,47.1909296
La Maison de Marthe et Marie de Nantes,Ouvert,green,-1.553621000000021,47.218371
Point Justice,Fermé,red,-1.375175899999931,47.7120445
Point d'accès au droit d'Ancenis,Ouvert,green,-1.1766832000000704,47.3656303
Espace civique Jacques Dubé Saint Nazaire,Ouvert,green,-2.2492866999999706,47.2663849
Point Justice de Pornic,Ouvert,green,-2.0662270000000262,47.1110132
Permanences d'Accès au Droit Vignoble,Ouvert,green,-1.2664183,47.1615425
CAF Nantes,Ouvert,green,-1.5822799999999688,47.2332
Ateliers de conversation français - La Maison des Citoyens du Monde,Fermé,red,-1.5626509999999598,47.214584
Centre socio-culturel Sillon de Bretagne,Fermé,red,-1.6069514000000709,47.24367789999999
Centre socioculturel Plaisance,Modification,orange,-1.5897236000000703,47.24024429999999
Espace départemental des Solidarités Talensac,Ouvert,green,-1.556738600000017,47.220696
Centre médico-social des Dervallières,Fermé,red,-1.5955937999999605,47.2224999
Mouvement du Nid,Fermé,red,-1.569232300000067,47.2117819
LICRA - Nantes,Ouvert,green,-1.5428472999999485,47.19557320000001
Cap Formation,Ouvert,green,-1.6215813999999682,47.2201433
Centre Communal d'Action Sociale (CCAS) de Divatte-sur-Loire - Mairie annexe,Fermé,red,-1.2865699999999833,47.2787551
Alter'Boutik,Fermé,red,-1.5391981,47.1647228
Le Planning Familial 44 de Saint-Nazaire,Fermé,red,-2.2153653000000304,47.2746121
SOLIDAIR'ÉTÉ (L'accueil de jour estival),Ouvert,green,-1.5329788000000235,47.2197841
Droit Au Logement de Loire Atlantique (DAL44),Ouvert,green,-1.5467948,47.2125771
La boutique du partage,Ouvert,green,-1.5855797000000393,47.2287865
Accueil Gambetta,Modification,orange,-1.5461359999999331,47.22055539999999
Maison de Nantes - Lazare,Ouvert,green,-1.5524218000000474,47.21897480000001
Recyclerie du sport,Fermé,red,-1.5200486999999612,47.2277205
Air Livre 1,Fermé,red,-1.550071399999979,47.21700260000001
Air Livre 2,Fermé,red,-1.5470020000000204,47.215067
Regart's,Ouvert,green,-1.6111551,47.2070287
Vertou Solidaire,Ouvert,green,-1.475915299999997,47.1695059
Secours populaire français - Comité de Bouguenais,Ouvert,green,-1.592477400000007,47.1822869
La Ressourcerie de l'île - Boutique,Ouvert,green,-1.5644039999999677,47.196451
La Fripouille,Ouvert,green,-1.9661998999999923,47.5188532
Le Réservoir - Sainte-Pazanne,Ouvert,green,-1.802686900000026,47.11119329999999
Le Réservoir - Saint-Brévin,Ouvert,green,-2.154373899999996,47.24121599999999
Le Réservoir - Le Pellerin,Ouvert,green,-1.755211700000018,47.2005798
Grand Magasin,Ouvert,green,-1.5507273000000623,47.2187933
Les Jeudis de l'Amitié à La Madeleine,Fermé,red,-1.5489480999999614,47.2049851
La Restauration,Ouvert,green,-1.5373031999999967,47.2139797
Hom'up,Ouvert,green,-1.5373031999999967,47.2139797
"Camion de la Croix-Rouge française, Place Pirmil",Fermé,red,-1.5416856,47.1978439
RAPI (Rencontres Amitiés & Partages Interculturels),Ouvert,green,-1.6049050999999963,47.2025224
CAP Jeunes,Ouvert,green,-1.5443233999999393,47.20535
La cocotte solidaire,Fermé,red,-1.5541608999999426,47.225612
Passerelle Logement,Ouvert,green,-1.5656042,47.211013
Air livre 2 Chantier d'insertion,Ouvert,green,-1.5470020000000204,47.215067
Air Livre 1 Chantier d'insertion,Ouvert,green,-1.5499068999999963,47.2170419
Association Dynamixt - Football,Fermé,red,-1.5987092000000303,47.2127691
Association Dynamixt - Musculation,Ouvert,green,-1.5987092000000303,47.2127691
ID Numeric,Fermé,red,-1.6048538999999664,47.2042939
Solidair'hiver,Ouvert,green,-1.5346942999999555,47.2195726
L'Entraide - Diaconat Protestant de Nantes,Modification,orange,-1.5639249,47.2191213
Ouvrir l'école aux parents - Atelier Sophie Germain,Ouvert,green,-1.5359938000000284,47.2150136
Ouvrir l'école aux parents - Atelier  La Noé Lambert,Ouvert,green,-1.527984800000013,47.2301104
Ouvrir l'école aux parents - Atelier Salvador Allende,Ouvert,green,-1.5719782999999552,47.1830508
Ouvrir l'école aux parents - Atelier  La ville aux roses,Ouvert,green,-1.3836522000000286,47.7123816
Association Parrains Par Mille antenne de Loire-Atlantique,Ouvert,green,-1.535958599999958,47.22144059999999
Vivre Libre 44,Fermé,red,-1.5855797000000393,47.2287865
AFEV  (Association de la Fondation Etudiante pour la Ville),Ouvert,green,-1.540289400000006,47.2141563
Cojob Nantes,Ouvert,green,-1.574648400000001,47.2066244
"AXEL, vos services pour l’emploi",Ouvert,green,-1.6107346999999663,47.20929709999999
France Victimes 44 Saint-Nazaire,Ouvert,green,-2.2151768,47.2731323
APO33,Fermé,red,-1.556539799999996,47.2218725
Trait d'Union,Ouvert,green,-2.2064973999999893,47.2722583
Caisse primaire d'assurance maladie - Agence Bretagne,Ouvert,green,-1.5597033000000238,47.21790969999999
Caisse primaire d'assurance maladie - CPAM Nantes Centre,Ouvert,green,-1.5316100000000006,47.206943
Centre Régional Information Jeunesse des Pays de la Loire - CRIJ,Fermé,red,-1.5555664999999408,47.2186245
Dclic,Ouvert,green,-1.596247299999959,47.2240063
FAImaison,Ouvert,green,-1.556539799999996,47.2218725
ESPACE TAMO - Accueil de Jour pour Jeunes Exilés,Ouvert,green,-1.5377667000000201,47.19590820000001
La Conciergerie du Parc,Fermé,red,-1.5683742,47.2047307
Le frigo solidaire,Ouvert,green,-1.5548436000000265,47.2148335
Mouvement contre le Racisme et pour l'Amitié entre les Peuples,Ouvert,green,-1.5874833000000308,47.2122383
Wifi public,Ouvert,green,-1.529262000000017,47.21462229999999
Wifi public,Ouvert,green,-1.5226015000000643,47.2490448
Wifi public,Ouvert,green,-1.6231818999999632,47.1791452
Wifi public,Ouvert,green,-1.5582154999999602,47.2133021
Wifi public,Ouvert,green,-1.564903700000059,47.2064997
Toilette publique,Ouvert,green,-1.4680029999999533,47.149447
Toilette publique,Ouvert,green,-1.5962898000000223,47.2526938
Toilette publique,Ouvert,green,-1.7253660000000082,47.21571300000001
Toilette publique,Ouvert,green,-1.4784892000000127,47.1674896
Toilette publique Crapa Beaulieu Parking,Ouvert,green,-1.5237271999999393,47.2109737
Toilette publique,Ouvert,green,-1.6229366999999684,47.270805
Toilette publique,Ouvert,green,-1.6238987000000407,47.1789014
Toilette publique,Ouvert,green,-1.5387263999999732,47.1886093
Permanence d'Accès aux droits des étrangers/demandeurs d’asile/réfugiés,Ouvert,green,-1.5874833,47.2122383
Toilette publique,Ouvert,green,-1.5544873000000052,47.2174535
Toilette publique,Ouvert,green,-1.6295162000000118,47.17730099999999
Toilette publique,Ouvert,green,-1.5929780000000164,47.2044037
Toilette publique,Ouvert,green,-1.473136199999999,47.1682218
Toilette publique,Ouvert,green,-1.5068989999999758,47.2092916
Toilette publique,Ouvert,green,-1.5849279999999908,47.1999681
Toilette publique,Ouvert,green,-1.5927053999999998,47.17723789999999
Toilette publique,Ouvert,green,-1.5633387000000312,47.21828350000001
Toilette publique,Ouvert,green,-1.5592861000000084,47.2177687
Toilette publique,Ouvert,green,-1.7318456000000424,47.13509759999999
Toilette publique,Ouvert,green,-1.5465635000000475,47.2022497
Toilette publique,Ouvert,green,-1.5651054999999587,47.21301700000001
Toilette publique,Ouvert,green,-1.5089110999999775,47.229375
Toilette publique,Ouvert,green,-1.5307967999999619,47.1910574
Toilette publique,Ouvert,green,-1.5895053000000416,47.2276878
Toilette publique,Ouvert,green,-1.561044000000038,47.21050299999999
Toilette publique,Ouvert,green,-1.7307240000000093,47.20964089999999
Toilette publique,Ouvert,green,-1.5276267000000416,47.2226323
Toilette publique,Ouvert,green,-1.4652991000000384,47.2155592
Toilette publique,Ouvert,green,-1.5334302999999636,47.20688149999999
Toilette publique,Ouvert,green,-1.5587898999999652,47.1709899
Toilette publique,Ouvert,green,-1.6160104000000501,47.2458248
Toilette publique,Ouvert,green,-1.5122652000000016,47.18019890000001
Bazar Boutique,Fermé,red,-1.6305312,47.178523
Toilette publique,Ouvert,green,-1.5650920000000497,47.1904529
Toilette publique,Ouvert,green,-1.560450899999978,47.25354830000001
Toilette publique,Ouvert,green,-1.5344746000000669,47.20762209999999
Toilette publique,Ouvert,green,-1.6888512000000446,47.1419489
Toilette publique,Ouvert,green,-1.569543000000067,47.1915959
Toilette publique,Ouvert,green,-1.5718957000000273,47.1810918
Toilette publique,Ouvert,green,-1.6081106999999975,47.2182694
Toilette publique,Ouvert,green,-1.5500666000000365,47.29953580000001
Toilette publique,Ouvert,green,-1.5855080000000044,47.2303697
Toilette publique,Ouvert,green,-1.6838123999999652,47.19001859999999
Toilette publique,Ouvert,green,-1.5421526999999742,47.1862463
Toilette publique,Ouvert,green,-1.578085099999953,47.25416209999999
Toilette publique,Ouvert,green,-1.518494099999998,47.2696903
Toilette publique,Ouvert,green,-1.5318571000000247,47.1643671
Toilette publique,Ouvert,green,-1.6536396999999852,47.1839868
Toilette publique,Ouvert,green,-1.6536396999999852,47.1839868
Toilette publique,Ouvert,green,-1.4374520000000075,47.266796
Toilette publique,Ouvert,green,-1.5587898999999652,47.1709899
Toilette publique,Ouvert,green,-2.2281671000000642,47.27243379999999
Toilette publique,Ouvert,green,-2.2048233000000437,47.27148460000001
Toilette publique,Ouvert,green,-2.2355426000000307,47.2573202
Toilette publique,Ouvert,green,-2.2254462999999305,47.2634265
Toilette publique,Ouvert,green,-2.227296199999955,47.25753059999999
Toilette publique,Ouvert,green,-2.2111813999999868,47.2851832
Toilette publique,Ouvert,green,-2.2222265000000334,47.2733526
Toilette publique,Ouvert,green,-2.2602908999999727,47.2827961
Toilette publique,Ouvert,green,-2.274773399999958,47.2494305
Toilette publique,Ouvert,green,-2.1912807999999586,47.2938927
Toilette publique,Ouvert,green,-2.2169198999999935,47.2720181
La Maison des Familles de Nantes Saint-Herblain,Ouvert,green,-1.6172859000000699,47.2065799
Toilette publique,Ouvert,green,-2.2802831999999853,47.238369
Toilette publique,Ouvert,green,-2.2178480000000036,47.27894999999999
Toilette publique,Ouvert,green,-2.2506862000000183,47.2796143
Toilette publique,Ouvert,green,-2.2784666000000016,47.2402944
Toilette publique,Ouvert,green,-2.221630600000026,47.2698682
Toilette publique,Ouvert,green,-2.2759320000000116,47.24032400000001
Toilette publique,Ouvert,green,-2.2480368000000226,47.27332440000001
Toilette publique,Ouvert,green,-2.3027099999999336,47.236729
Toilette publique,Ouvert,green,-2.183194599999979,47.3000324
Toilette publique,Ouvert,green,-2.234795800000029,47.26372879999999
Toilette publique,Ouvert,green,-2.2543673000000126,47.2536652
Toilette publique,Ouvert,green,-2.23821810000004,47.2881922
Toilette publique,Ouvert,green,-2.243035500000019,47.2637497
Toilette publique,Ouvert,green,-2.214279499999975,47.2737696
Médiagraph,Ouvert,green,-1.563534699999991,47.2213198
Toit à Moi,Ouvert,green,-1.5505928,47.1890836
Accoord Studio 11 /15,Ouvert,green,-1.5626873999999589,47.2048215
Restaurant Inter Générationnel Malville,Ouvert,green,-1.582888,47.2319411
Au P'tit Plus,Fermé,red,-1.556261,47.1819363
Cybercentre Bouguenais,Fermé,red,-1.6255572,47.1788424
Pain Partagé,Ouvert,green,-1.3699602,47.317576
Les Virevoltantes,Fermé,red,-1.5507273,47.2187933
Secours Populaire Saint-Nazaire - Carrefour des Solidarités,Fermé,red,-2.2251321,47.2846368
SAFE Migrants Nantes,Ouvert,green,-1.589005,47.209902
UNITE LOCALE DE BRIERE ATLANTIQUE,Ouvert,green,-2.2251321,47.2846368
Centre de soins dentaire,Ouvert,green,-1.5543918,47.2120313
L'Espoir au cœur,Fermé,red,-2.2401419,47.2683039
Centre d’hébergement d’urgence F. Blanchy,Ouvert,green,-2.2069801,47.28521610000001
La Grange aux fringues,Ouvert,green,-2.2570633,47.26101819999999
Envie 44,Ouvert,green,-2.2729741,47.25960629999999
Envie 44,Ouvert,green,-1.6514896,47.2316387
CLIC Nantes Entour'Âge,Modification,orange,-1.5583525,47.2191009
Espace Agnès Varda,Ouvert,green,-1.5595056,47.20555349999999
Centre de consultation tabacologique,Ouvert,green,-2.2701514,47.26164549999999
Centre d'Examens de santé,Fermé,red,-2.2232383,47.2743441
Toilettes publique Gare maritime,Ouvert,green,-1.5730988,47.2070339
Stations Services,Ouvert,green,-1.543335,47.1643419
Trocantons Saint-Mars-la-Jaille,Ouvert,green,-1.2025308,47.5274668
Trocantons Belligne,Ouvert,green,-1.0288573,47.4674679
Trocantons Le Cellier,Ouvert,green,-1.3548011,47.3362918
Recyclerie Drefféac,Ouvert,green,-2.067194999999999,47.468255
Recyclerie Savenay,Ouvert,green,-1.888551,47.354684
La Rivière,Ouvert,green,-1.5439361,47.2482829
La Pomme et la Lionne,Ouvert,green,-2.1890449,47.29617089999999
Restaurant ADELIS,Ouvert,green,-1.5427631,47.2060976
Recycle & Don,Ouvert,green,-1.7503216,47.6247263
Au bonheur des bennes,Fermé,red,-2.2141786,47.2813533
Croix rouge Française Pontchâteau,Fermé,red,-2.0854651,47.4377028
Croix Rouge Française Batz-sur-mer,Fermé,red,-2.4778824,47.27755379999999
Croix Rouge Française La Turballe,Fermé,red,-2.50908,47.3464038
Croix Rouge Française  Piriac sur mer,Fermé,red,-2.545337,47.38032
Équipe Mobile Psychiatrique et Précarité (EMPP),Ouvert,green,-2.2394416,47.2751008
Croix Rouge Française Croisic,Fermé,red,-2.5149332,47.29556829999999
Secours populaire Pornichet-La Baule,Ouvert,green,-2.318127,47.2549687
Secours Populaire Rezé,Ouvert,green,-1.5746579,47.19465699999999
L'Ecocyclerie,Ouvert,green,-1.2654715,47.1794471
La Boutique des Dervallières,Ouvert,green,-1.5976324,47.222755
Atelier Bricolage des Dervallière,Ouvert,green,-1.5922955,47.2208677
ADIL de Saint-Nazaire,Ouvert,green,-2.2076521,47.2782133
Couples et Familles,Ouvert,green,-1.5874833,47.2122383
Le bus du cœur,Fermé,red,-1.5423909,47.1978131
Centre de distribution de Grandchamps-des-Fontaines,Ouvert,green,-1.6036597,47.3642328
Espace Bébé Parents Chateaubriant,Fermé,red,-1.3860376,47.7018504
Centre de distribution de Saint-Michel-chef-chef,Ouvert,green,-2.1460746,47.1708801
Equipe locale Sud Estuaire,Ouvert,green,-2.0077242,47.2766165
60B,Fermé,red,-1.52045,47.2386566
La boîte à Récup Nantes - Boutique boulevard Jean XXIII,Ouvert,green,-1.574436,47.2315852
La boîte à Récup Saint Herblain,Ouvert,green,-1.5869971,47.2362276
La récupérette,Ouvert,green,-1.2825412,47.0776319
Comité de La Turballe,Ouvert,green,-2.509398,47.351842
Comité de La Montagne,Fermé,red,-1.6747041,47.187261
Comité de Batz-sur-Mer,Ouvert,green,-2.477404,47.27908660000001
Comité de Guérande,Fermé,red,-2.4021626,47.32426279999999
Solida'meubles,Fermé,red,-2.405687700000001,47.32472369999999
Comité SPF de Grand Lieu,Ouvert,green,-1.6408808,47.0373555
Antenne de Vertou,Fermé,red,-1.4759153,47.1695059
Comité de La Chapelle des Marais,Fermé,red,-2.2650354,47.44377189999999
POP Trouvailles,Ouvert,green,-2.243362,47.447403
Comité de Donges,Fermé,red,-2.0755941,47.3218302
Comité de Pontchâteau,Ouvert,green,-2.0926408,47.43831669999999
Antenne de Basse-Goulaine,Fermé,red,-1.4641795,47.2172473
Comité de Saint-Sébastien sur Loire,Ouvert,green,-1.5204659,47.1913478
Comité d'Ancenis,Ouvert,green,-1.1793117,47.3746573
Centre de distribution de Montoir,Ouvert,green,-2.1504707,47.3292612
Secours Populaire de Trignac,Ouvert,green,-2.190450999999999,47.3187767
Comité de Blain-Guéméné - distribution de Blain,Ouvert,green,-1.7661764,47.4741407
Vestiaire de Guémené-Penfao,Ouvert,green,-1.834937199999999,47.6318438
Comité de Blain-Guéméné - Distribution de Guéméné Penfao,Ouvert,green,-1.764935,47.47527900000001
CAF Saint-Nazaire,Ouvert,green,-2.211967,47.2861183
CIDFF du Bassin Nazairien,Ouvert,green,-2.2274549,47.2824527
CLIC Pilot’âge,Ouvert,green,-2.2177056,47.2724817
Miss récup & recycle,Ouvert,green,-1.5460955,47.19192779999999
CRESUS Saint-Nazaire,Ouvert,green,-2.2053498,47.2782097
Students shop 44,Ouvert,green,-1.558031,47.249401
Permanence d'accès au droit de Saint Nazaire,Fermé,red,-2.2500032,47.26753189999999
Maison des associations AGORA 1901,Modification,orange,-2.2063508,47.2780375
Distribution alimentaire de l'Autre Cantine,Ouvert,green,-1.5562849,47.22114250000001
Distribution alimentaire Nouveau départ,Ouvert,green,-1.5572648,47.2121536
Femmes Solidaires Saint Nazaire,Ouvert,green,-2.2063508,47.2780375
Logis Saint-jean,Fermé,red,-1.5611277,47.21483500000001
Des Femmes en Fil,Fermé,red,-1.6160507,47.2138068
Couture Plaisir Nantes,Fermé,red,-1.5187681,47.24048029999999
Cours de Français ASO,Ouvert,green,-1.6024871,47.20163529999999
Actions Solidaires Opérantes,Ouvert,green,-1.6115224,47.2083084
Ambitions Jeunesses,Ouvert,green,-1.525496,47.214823
Narcotiques Anonymes ( NA ),Ouvert,green,-1.5435003,47.19662599999999
Narcotiques Anonymes ( NA ),Ouvert,green,-1.5301402,47.221993
Narcotiques Anonymes ( NA ),Ouvert,green,-1.5641395,47.2193639
Alcooliques Anonymes - Ancenis - Saint Géréon,Ouvert,green,-1.2011828,47.36906940000001
Alcooliques Anonymes - Guérande,Ouvert,green,-2.427929,47.3286323
Alcooliques Anonymes - Pornic,Ouvert,green,-2.1118202,47.1246078
Alcooliques Anonymes - Pornichet,Ouvert,green,-2.3192505,47.2545118
Alcooliques Anonymes - La Baule,Ouvert,green,-2.3959183,47.2831435
Alcooliques Anonymes - Saint-Nazaire,Ouvert,green,-2.217286,47.27046449999999
Unité de gynécologie-obstétrique médico-psycho-sociale (Ugomps),Ouvert,green,-1.5509298,47.2091909
Distribution Alimentaire de la Communauté de l'Ours Noir,Fermé,red,-1.553621,47.218371
La Boutique,Ouvert,green,-1.2649071,47.179479
La Blanchisserie,Ouvert,green,-1.2706695,47.1647735
Solidarité Nouvelle face au Chômage (SNC) de Nantes,Ouvert,green,-1.5354627,47.2199725
CRESUS Saint-Herblain,Ouvert,green,-1.6488456,47.21095469999999
CRESUS Saint-Brévin,Ouvert,green,-2.167818,47.247516
CRESUS Saint-Père-en-Retz,Ouvert,green,-2.043902,47.207685
CRESUS Paimboeuf,Ouvert,green,-2.029554,47.2861602
CRESUS Orvault,Ouvert,green,-1.5953392,47.25291740000001
ADC Propreté,Ouvert,green,-1.6118984,47.1987809
Brasserie Tête Haute,Ouvert,green,-1.3782022,47.320581
INSERIM Nantes,Ouvert,green,-1.5561426,47.20671799999999
INSERIM Saint-Nazaire,Ouvert,green,-2.2696527,47.25934729999999
INSERIM Châteaubriand/Ancenis,Ouvert,green,-1.3756729,47.7115879
Maison de Quartier de la Chesnaie,Modification,orange,-2.2500044,47.2675425
Maison de Quartier de la Bouletterie,Ouvert,green,-2.2606271,47.2606994
Maison de Quartier de Kerlédé,Ouvert,green,-2.234509699999999,47.2571404
Maison de Quartier Méan-Penhoët,Ouvert,green,-2.189207,47.2963979
Trait d'Union 44,Ouvert,green,-1.6271506,47.2010953
Tribord 44,Ouvert,green,-1.6631877,47.4147624
ASF Avessac Sans Frontières,Ouvert,green,-1.988849699999999,47.6546134
Solimée,Ouvert,green,-1.3794667,47.7117928
Espace départemental des solidarités Saint-Nazaire Ouest,Ouvert,green,-2.2516198,47.2673447
Espace départemental des solidarités Saint-Nazaire Gare,Ouvert,green,-2.2108032,47.28582489999999
Résidence des Jeunes,Ouvert,green,-2.2253023,47.27829279999999
Centre de Planification et d'Education Familiale - Centre IVG,Ouvert,green,-2.2701514,47.26164549999999
Les Petits Frères des Pauvres - Saint-Nazaire,Ouvert,green,-2.2065739,47.2778137
La Maison de Coluche,Ouvert,green,-1.503617,47.23030179999999
Institut Francophonie,Ouvert,green,-1.5497795,47.21109059999999
L'Hirondelle Syrienne,Modification,orange,-1.5810432,47.2661007
Action de Soutien aux Jeunes Migrants du centre éducatif Tréméac,Ouvert,green,-1.5876174,47.2088145
Projet Solingua,Ouvert,green,-1.5664991,47.2526619
Le Point Clé,Ouvert,green,-1.5204443,47.19370749999999
E2CEL Nantes,Fermé,red,-1.5540137,47.2171567
Fédération des Maisons de Quartier de Saint-Nazaire,Ouvert,green,-2.240277599999999,47.27903309999999
APIE,Ouvert,green,-2.2035024,47.2783692
Accès-Réagis,Ouvert,green,-2.0129626,47.40000059999999
Pactes - La Chapelle-des-Marais,Ouvert,green,-2.2429427,47.44668410000001
Pactes - Saint-Gildas-des-Bois,Ouvert,green,-2.0389748,47.51236590000001
Pactes - Montoir-de-Bretagne,Ouvert,green,-2.1515853,47.3300324
Pactes - Pontchâteau,Ouvert,green,-2.0905006,47.43638749999999
Inseretz - Pornic,Ouvert,green,-2.0648933,47.115507
Inseretz - Paimboeuf,Ouvert,green,-2.0244135,47.2866233
Inseretz - Saint-Brévin-les-Pins,Ouvert,green,-2.1674719,47.2479018
Inseretz - Sainte-Pazanne,Ouvert,green,-1.8111204,47.1044044
ELI - Ancenis,Ouvert,green,-1.1807351,47.4099221
ELI - Teillé,Ouvert,green,-1.2792693,47.46209500000001
ELI - Varades,Ouvert,green,-1.0318554,47.3877914
Atelier BARA'MEL,Ouvert,green,-1.6543688,47.25760209999999
Réagir Ensemble,Ouvert,green,-1.6960935,47.18770059999999
Hom'less,Fermé,red,-1.557966,47.22123
Espace Animation Beaulieu,Ouvert,green,-1.5263384,47.20812050000001
Association Dynamixt - Gym d'entretien,Fermé,red,-1.5481528,47.2129275
Association Dynamixt - Marche et course,Fermé,red,-1.555856,47.2145991
Fraternité Saint Nazaire,Ouvert,green,-2.2097654,47.2836346
Ouvrir l'école aux parents - Atelier Lycée Gaspard Monge - La Chauvinière,Ouvert,green,-1.5719537,47.25357349999999
Ouvrir l'école aux parents - Atelier Lycée Aristide Briand,Ouvert,green,-2.231401,47.2741293
Epicerie solidaire Totem,Ouvert,green,-2.2108196,47.2837473
Citad'elles,Ouvert,green,-1.5421539,47.2067211
Maison de quartier Immaculée Beauregard ,Ouvert,green,-2.2607708,47.2965752
L'abri des familles,Fermé,red,-1.5489548,47.2051373
FACE 44 Saint Nazaire,Ouvert,green,-2.2649886,47.25175569999999
SOS Incestes et Violences Sexuelles,Fermé,red,-2.2274549,47.2824527
Centre de distribution de Nantes Bénélux,Fermé,red,-1.5006066,47.2537702
Repairs 44,Fermé,red,-1.5732615,47.2065693
Restaurant associatif l'Incubateur ,Fermé,red,-1.5946948,47.2122338
Pôle associatif 38 Breil ,Fermé,red,-1.5844555,47.2294636
Marché solidaire étudiants - Bar la Lune Froide,Ouvert,green,-1.5537919,47.223951
JRS Jeunes/permanence juridique/intégration,Ouvert,green,-1.5528192,47.2439555
JRS Cours de français,Ouvert,green,-1.5560572,47.2411261
Alcooliques Anonymes,Ouvert,green,-1.547509,47.1886296
Espace Simone de Beauvoir ,Ouvert,green,-1.5732615,47.2065693
Bar/resto solidaire Stereolux,Ouvert,green,-1.56347,47.205123
Repère du Carillon,Ouvert,green,-1.5505119,47.212937
Question Confiance,Modification,orange,-1.5538707,47.2171027
ASFMR 44,Ouvert,green,-1.5303134,47.2143059
Centre Communal d'Action Sociale (CCAS) de Vair-Sur-Loire (site d'Anetz),Fermé,red,-1.1022457,47.3828514
L'Autre classe 44,Ouvert,green,-1.5416446,47.2035198
LE PAS au Carré des services publics,Fermé,red,-1.609194,47.213015
CAFEJ 44,Ouvert,green,-1.5934277,47.21324149999999
Cours de couture,Fermé,red,-1.610445,47.20900959999999
Nantes Rollers,Ouvert,green,-1.5543947,47.2122953
Le village des 5 ponts,Ouvert,green,-1.5541294,47.2032385
Aidons notre prochain Nantes,Fermé,red,-1.5562849,47.22114250000001
CampusSolidaire Nantes,Ouvert,green,-1.5934277,47.21324149999999
Cresus Clisson,Ouvert,green,-1.2847363,47.0837455
Halte de nuit - Les Eaux Vives,Ouvert,green,-1.5538239,47.2032659
Maison des adolescents - Saint-Nazaire,Ouvert,green,-2.2153833,47.2746652
Maison des adolescents - Nantes,Ouvert,green,-1.5648564,47.2074748
La Croix Bleue - Section de Saint-Nazaire,Ouvert,green,-2.247083599999999,47.26473
Association bi-pôles,Ouvert,green,-1.5428473,47.1955732
Femmes solidaires Nantes,Ouvert,green,-1.5947586,47.2089347
Restaurant social l'Interlude ,Ouvert,green,-1.5444057,47.2351257
Caisse primaire d'assurance maladie - Agence AME ,Ouvert,green,-2.2230411,47.27396880000001
SAINT-LYPHARD - France Services,Ouvert,green,-2.3057752,47.3979068
Caisse primaire d'assurance maladie - Agence Saint-Herblain,Ouvert,green,-1.6086611,47.2126541
Caisse primaire d'assurance maladie - Agence Rezé,Ouvert,green,-1.5562794,47.185993
France Services - Nozay,Ouvert,green,-1.6265794,47.5646586
Caisse primaire d'assurance maladie - Agence Dervallières,Ouvert,green,-1.5974837,47.223008
La boîte à Récup Nantes - Boutique de Procé,Ouvert,green,-1.5834589,47.2262347
Epicerie SurpreNantes,Fermé,red,-1.5518185,47.2459286
